[
	{
		'id' : 1,
		'name_en' : "北京釣魚臺國賓館",
		'name_cn' : "北京钓鱼台国宾馆",
		'rating_en' : 4.9,
		'rating_cn' : 4.9,
		'starCount' : 6,
		'latitude' : "39.920483",
		'longitude' : "116.321869",
		'originalHotelID' : "820949",
		'source' : "c"
	},
	{
		'id' : 6,
		'name_en' : "Crystal Orange Hotel (Beijing Jiuxianqiao)",
		'name_cn' : "桔子水晶酒店（北京酒仙桥店）",
		'rating_en' : 4.7,
		'rating_cn' : 4.7,
		'starCount' : 5,
		'latitude' : "39.976243",
		'longitude' : "116.489447",
		'originalHotelID' : "2226967",
		'source' : "c"
	},
	{
		'id' : 7,
		'name_en' : "Beijing Golden Sun Commercial Hotel",
		'name_cn' : "北京金色夏日商务酒店",
		'rating_en' : 4.5,
		'rating_cn' : 4.5,
		'starCount' : 4,
		'latitude' : "39.893938",
		'longitude' : "116.35243",
		'originalHotelID' : "444199",
		'source' : "c"
	},
	{
		'id' : 8,
		'name_en' : "Crystal Orange Hotel (Jianguomen Beijing)",
		'name_cn' : "桔子水晶酒店（北京建国门店）",
		'rating_en' : 4.5,
		'rating_cn' : 4.5,
		'starCount' : 4,
		'latitude' : "39.905471",
		'longitude' : "116.448028",
		'originalHotelID' : "1722447",
		'source' : "c"
	},
	{
		'id' : 9,
		'name_en' : "Crystal Orange Hotel (Beijing An Zhen)",
		'name_cn' : "桔子水晶酒店（北京安贞店）",
		'rating_en' : 4.6,
		'rating_cn' : 4.6,
		'starCount' : 4,
		'latitude' : "39.968573",
		'longitude' : "116.412118",
		'originalHotelID' : "1725911",
		'source' : "c"
	},
	{
		'id' : 10,
		'name_en' : "Crystal Orange Hotel (Beijing Chongwenmen)",
		'name_cn' : "桔子水晶酒店（北京崇文门店）",
		'rating_en' : 4.6,
		'rating_cn' : 4.6,
		'starCount' : 4,
		'latitude' : "39.894349",
		'longitude' : "116.419351",
		'originalHotelID' : "1836273",
		'source' : "c"
	},
	{
		'id' : 11,
		'name_en' : "Jinfeng Hotel",
		'name_cn' : "北京金枫酒店",
		'rating_en' : 4.3,
		'rating_cn' : 4.3,
		'starCount' : 4,
		'latitude' : "39.991901",
		'longitude' : "116.497629",
		'originalHotelID' : "1249518",
		'source' : "c"
	},
	{
		'id' : 12,
		'name_en' : "Beijing Four Seasons Royal Garden International Hotel",
		'name_cn' : "北京四季御园国际大酒店",
		'rating_en' : 4.1,
		'rating_cn' : 4.1,
		'starCount' : 4,
		'latitude' : "39.986007",
		'longitude' : "116.264819",
		'originalHotelID' : "429173",
		'source' : "c"
	},
	{
		'id' : 13,
		'name_en' : "Sinopec Conference Center",
		'name_cn' : "北京中国石化会议中心",
		'rating_en' : 4.4,
		'rating_cn' : 4.4,
		'starCount' : 5,
		'latitude' : "40.241987",
		'longitude' : "116.264479",
		'originalHotelID' : "1602274",
		'source' : "c"
	},
	{
		'id' : 14,
		'name_en' : "Beijing Yingcheng Business Hotel",
		'name_cn' : "北京鹰城商务酒店",
		'rating_en' : 4,
		'rating_cn' : 4,
		'starCount' : 4,
		'latitude' : "39.921764",
		'longitude' : "116.427117",
		'originalHotelID' : "457213",
		'source' : "c"
	},
	{
		'id' : 15,
		'name_en' : "Orange Hotel·Select (Sanyuanqiao Beijing)",
		'name_cn' : "桔子酒店·精选（北京三元桥店）",
		'rating_en' : 4.5,
		'rating_cn' : 4.5,
		'starCount' : 4,
		'latitude' : "39.959237",
		'longitude' : "116.448279",
		'originalHotelID' : "1837777",
		'source' : "c"
	},
	{
		'id' : 16,
		'name_en' : "Medici Hotel",
		'name_cn' : "北京美第奇精选酒店",
		'rating_en' : 4.5,
		'rating_cn' : 4.5,
		'starCount' : 4,
		'latitude' : "40.081535",
		'longitude' : "116.587896",
		'originalHotelID' : "2642089",
		'source' : "c"
	},
	{
		'id' : 17,
		'name_en' : "Boutique Hotel ",
		'name_cn' : "北京布提克精品酒店",
		'rating_en' : 4.2,
		'rating_cn' : 4.2,
		'starCount' : 4,
		'latitude' : "40.060645",
		'longitude' : "116.576605",
		'originalHotelID' : "1537661",
		'source' : "c"
	},
	{
		'id' : 18,
		'name_en' : "Century Huatian Hotel",
		'name_cn' : "北京世纪华天大酒店",
		'rating_en' : 4.3,
		'rating_cn' : 4.3,
		'starCount' : 4,
		'latitude' : "39.963561",
		'longitude' : "116.27848",
		'originalHotelID' : "511769",
		'source' : "c"
	},
	{
		'id' : 19,
		'name_en' : "Crystal Orange Hotel Zongbujidi ",
		'name_cn' : "桔子水晶酒店（北京总部基地店)",
		'rating_en' : 4.5,
		'rating_cn' : 4.5,
		'starCount' : 4,
		'latitude' : "39.823959",
		'longitude' : "116.29068",
		'originalHotelID' : "2043832",
		'source' : "c"
	},
	{
		'id' : 20,
		'name_en' : "Qihang International Hotel",
		'name_cn' : "北京首都机场启航国际酒店（新国展店）",
		'rating_en' : 4,
		'rating_cn' : 4,
		'starCount' : 4,
		'latitude' : "40.067495",
		'longitude' : "116.570175",
		'originalHotelID' : "419975",
		'source' : "c"
	},
	{
		'id' : 21,
		'name_en' : "Jun Hotel",
		'name_cn' : "北京竣酒店",
		'rating_en' : 4.3,
		'rating_cn' : 4.3,
		'starCount' : 4,
		'latitude' : "40.031159",
		'longitude' : "116.477153",
		'originalHotelID' : "1380723",
		'source' : "c"
	},
	{
		'id' : 22,
		'name_en' : "Rosewood Beijing",
		'name_cn' : "北京瑰丽酒店",
		'rating_en' : 4.8,
		'rating_cn' : 4.8,
		'starCount' : 6,
		'latitude' : "39.920376",
		'longitude' : "116.460582",
		'originalHotelID' : "1198297",
		'source' : "c"
	},
	{
		'id' : 24,
		'name_en' : "Celebrity International Grand Hotel",
		'name_cn' : "北京名人国际大酒店",
		'rating_en' : 4.5,
		'rating_cn' : 4.5,
		'starCount' : 5,
		'latitude' : "39.99519349",
		'longitude' : "116.4074012",
		'originalHotelID' : "429111",
		'source' : "c"
	},
	{
		'id' : 25,
		'name_en' : "Orient MGM International Hotel",
		'name_cn' : "北京东方美高美国际酒店",
		'rating_en' : 4.6,
		'rating_cn' : 4.6,
		'starCount' : 5,
		'latitude' : "39.807786",
		'longitude' : "116.096209",
		'originalHotelID' : "1171744",
		'source' : "c"
	},
	{
		'id' : 26,
		'name_en' : "Tiantan Hotel",
		'name_cn' : "北京天坛饭店",
		'rating_en' : 4.3,
		'rating_cn' : 4.3,
		'starCount' : 4,
		'latitude' : "39.884636",
		'longitude' : "116.430539",
		'originalHotelID' : "608345",
		'source' : "c"
	},
	{
		'id' : 27,
		'name_en' : "Hilton Beijing Wangfujing",
		'name_cn' : "北京王府井希尔顿酒店",
		'rating_en' : 4.7,
		'rating_cn' : 4.7,
		'starCount' : 4,
		'latitude' : "39.914539",
		'longitude' : "116.413392",
		'originalHotelID' : "347308",
		'source' : "c"
	},
	{
		'id' : 29,
		'name_en' : "Dafang Hotel",
		'name_cn' : "北京大方饭店",
		'rating_en' : 4.3,
		'rating_cn' : 4.3,
		'starCount' : 4,
		'latitude' : "39.892894",
		'longitude' : "116.324661",
		'originalHotelID' : "691682",
		'source' : "c"
	},
	{
		'id' : 38,
		'name_en' : "Swissotel Beijing",
		'name_cn' : "北京港澳中心瑞士酒店",
		'rating_en' : 4.5,
		'rating_cn' : 4.5,
		'starCount' : 5,
		'latitude' : "39.932805",
		'longitude' : "116.435701",
		'originalHotelID' : "375507",
		'source' : "c"
	},
	{
		'id' : 39,
		'name_en' : "Tangla Beijing",
		'name_cn' : "北京唐拉雅秀酒店",
		'rating_en' : 4.5,
		'rating_cn' : 4.5,
		'starCount' : 5,
		'latitude' : "39.90807",
		'longitude' : "116.343188",
		'originalHotelID' : "374783",
		'source' : "c"
	},
	{
		'id' : 40,
		'name_en' : "Shangri-La’s China World Hotel",
		'name_cn' : "北京中国大饭店",
		'rating_en' : 4.7,
		'rating_cn' : 4.7,
		'starCount' : 5,
		'latitude' : "39.91003",
		'longitude' : "116.459245",
		'originalHotelID' : "378583",
		'source' : "c"
	},
	{
		'id' : 41,
		'name_en' : "East Beijing",
		'name_cn' : "北京东隅酒店",
		'rating_en' : 4.6,
		'rating_cn' : 4.6,
		'starCount' : 4,
		'latitude' : "39.968594",
		'longitude' : "116.492018",
		'originalHotelID' : "429505",
		'source' : "c"
	},
	{
		'id' : 42,
		'name_en' : "The Great Wall Sheraton Hotel Beijing",
		'name_cn' : "北京喜来登长城饭店",
		'rating_en' : 4.2,
		'rating_cn' : 4.2,
		'starCount' : 5,
		'latitude' : "39.94436784",
		'longitude' : "116.462358",
		'originalHotelID' : "347310",
		'source' : "c"
	},
	{
		'id' : 43,
		'name_en' : "CITIC Hotel Beijing Airport (formerly Sino-Swiss Hotel)",
		'name_cn' : "北京国都大饭店",
		'rating_en' : 4.1,
		'rating_cn' : 4.1,
		'starCount' : 4,
		'latitude' : "40.049438",
		'longitude' : "116.589668",
		'originalHotelID' : "429500",
		'source' : "c"
	},
	{
		'id' : 44,
		'name_en' : "Tangram Hotel Xin Yuan Li Beijing",
		'name_cn' : "北京新源里谭阁美饭店",
		'rating_en' : 4.3,
		'rating_cn' : 4.3,
		'starCount' : 4,
		'latitude' : "39.948889",
		'longitude' : "116.449059",
		'originalHotelID' : "438604",
		'source' : "c"
	},
	{
		'id' : 45,
		'name_en' : "Beijing Ruyi Business Hotel",
		'name_cn' : "北京如意商务酒店",
		'rating_en' : 4.3,
		'rating_cn' : 4.3,
		'starCount' : 4,
		'latitude' : "39.937768",
		'longitude' : "116.303759",
		'originalHotelID' : "481723",
		'source' : "c"
	},
	{
		'id' : 46,
		'name_en' : "North Garden Hotel",
		'name_cn' : "北京北方佳苑饭店",
		'rating_en' : 4.3,
		'rating_cn' : 4.3,
		'starCount' : 4,
		'latitude' : "39.910408",
		'longitude' : "116.412719",
		'originalHotelID' : "346488",
		'source' : "c"
	},
	{
		'id' : 47,
		'name_en' : "Beijing Jinqiao International",
		'name_cn' : "北京金桥国际公寓",
		'rating_en' : 4.5,
		'rating_cn' : 4.5,
		'starCount' : 4,
		'latitude' : "39.895996",
		'longitude' : "116.44227",
		'originalHotelID' : "451283",
		'source' : "c"
	},
	{
		'id' : 48,
		'name_en' : "Glory Hotel",
		'name_cn' : "北京凯瑞大酒店",
		'rating_en' : 4.5,
		'rating_cn' : 4.5,
		'starCount' : 4,
		'latitude' : "39.9001645183537",
		'longitude' : "116.316559463739",
		'originalHotelID' : "825367",
		'source' : "c"
	},
	{
		'id' : 49,
		'name_en' : "Beijing Jiangtai Art Hotel",
		'name_cn' : "北京将台艺宫酒店",
		'rating_en' : 4.2,
		'rating_cn' : 4.2,
		'starCount' : 4,
		'latitude' : "39.970893",
		'longitude' : "116.489314",
		'originalHotelID' : "456477",
		'source' : "c"
	},
	{
		'id' : 51,
		'name_en' : "Hotel New Otani Chang Fu Gong",
		'name_cn' : "北京长富宫饭店",
		'rating_en' : 4.7,
		'rating_cn' : 4.7,
		'starCount' : 5,
		'latitude' : "39.90815864",
		'longitude' : "116.4377948",
		'originalHotelID' : "427807",
		'source' : "c"
	},
	{
		'id' : 53,
		'name_en' : "Boutique Hotel ",
		'name_cn' : "北京布提克精品酒店",
		'rating_en' : 4.2,
		'rating_cn' : 4.2,
		'starCount' : 4,
		'latitude' : "40.081575",
		'longitude' : "116.587912",
		'originalHotelID' : "1537661",
		'source' : "c"
	},
	{
		'id' : 54,
		'name_en' : "Beijing Regal Hotel",
		'name_cn' : "北京富豪宾馆（新楼A座）",
		'rating_en' : 4.5,
		'rating_cn' : 4.5,
		'starCount' : 4,
		'latitude' : "39.9216852645075",
		'longitude' : "116.410222836805",
		'originalHotelID' : "427326",
		'source' : "c"
	},
	{
		'id' : 55,
		'name_en' : "Purple Jade Laguna Resort",
		'name_cn' : "北京紫玉度假酒店",
		'rating_en' : 4.4,
		'rating_cn' : 4.4,
		'starCount' : 5,
		'latitude' : "40.01420860241",
		'longitude' : "116.409624069929",
		'originalHotelID' : "456474",
		'source' : "c"
	},
	{
		'id' : 57,
		'name_en' : "Beijing Xizhao Temple Hotel",
		'name_cn' : "北京金台夕照酒店（文化主题酒店）",
		'rating_en' : 4.4,
		'rating_cn' : 4.4,
		'starCount' : 4,
		'latitude' : "39.8900234602049",
		'longitude' : "116.439725160599",
		'originalHotelID' : "374786",
		'source' : "c"
	},
	{
		'id' : 58,
		'name_en' : "CHANGANBAIYUN HOTEL",
		'name_cn' : "北京长安白云大酒店",
		'rating_en' : 4.3,
		'rating_cn' : 4.3,
		'starCount' : 5,
		'latitude' : "39.900169",
		'longitude' : "116.345853",
		'originalHotelID' : "712267",
		'source' : "c"
	},
	{
		'id' : 59,
		'name_en' : "北京宏瑞御景國際酒店",
		'name_cn' : "北京宏瑞御景国际酒店",
		'rating_en' : 4.1,
		'rating_cn' : 4.1,
		'starCount' : 4,
		'latitude' : "40.119549",
		'longitude' : "116.560135",
		'originalHotelID' : "1353895",
		'source' : "c"
	},
	{
		'id' : 60,
		'name_en' : "Tujia Sweetome Vacation Rentals (The Lama Temple Hong Yun Ge)",
		'name_cn' : "北京途家斯维登度假酒店（雍和宫红云阁店）",
		'rating_en' : 4.5,
		'rating_cn' : 4.5,
		'starCount' : 4,
		'latitude' : "39.9486541748047",
		'longitude' : "116.413543701172",
		'originalHotelID' : "1743526",
		'source' : "c"
	},
	{
		'id' : 61,
		'name_en' : "Shangri-La China World Summit Wing, Beijing",
		'name_cn' : "北京国贸大酒店",
		'rating_en' : 4.8,
		'rating_cn' : 4.8,
		'starCount' : 5,
		'latitude' : "39.9130850934879",
		'longitude' : "116.458709836006",
		'originalHotelID' : "369675",
		'source' : "c"
	},
	{
		'id' : 62,
		'name_en' : "Beijing Qianyuan Hotel",
		'name_cn' : "北京乾元酒店",
		'rating_en' : 4.7,
		'rating_cn' : 4.7,
		'starCount' : 4,
		'latitude' : "39.941529",
		'longitude' : "116.42515",
		'originalHotelID' : "437440",
		'source' : "c"
	},
	{
		'id' : 63,
		'name_en' : "Beijing Shangri-La Hotel",
		'name_cn' : "北京香格里拉饭店",
		'rating_en' : 4.2,
		'rating_cn' : 4.7,
		'starCount' : 5,
		'latitude' : "39.94385487",
		'longitude' : "116.306986",
		'originalHotelID' : "429548",
		'source' : "c"
	},
	{
		'id' : 64,
		'name_en' : "The Westin Beijing Chaoyang",
		'name_cn' : "金茂北京威斯汀大饭店",
		'rating_en' : 4.7,
		'rating_cn' : 4.7,
		'starCount' : 5,
		'latitude' : "39.950293",
		'longitude' : "116.460582",
		'originalHotelID' : "419959",
		'source' : "c"
	},
	{
		'id' : 65,
		'name_en' : "Prime Hotel",
		'name_cn' : "北京华侨大厦",
		'rating_en' : 4.5,
		'rating_cn' : 4.5,
		'starCount' : 5,
		'latitude' : "39.92391824",
		'longitude' : "116.4110636",
		'originalHotelID' : "419993",
		'source' : "c"
	},
	{
		'id' : 66,
		'name_en' : "Traders Hotel Beijing",
		'name_cn' : "北京国贸饭店",
		'rating_en' : 4.6,
		'rating_cn' : 4.6,
		'starCount' : 4,
		'latitude' : "39.911506",
		'longitude' : "116.459177",
		'originalHotelID' : "375126",
		'source' : "c"
	},
	{
		'id' : 67,
		'name_en' : "Novotel Peace Hotel Beijing",
		'name_cn' : "北京诺富特和平宾馆",
		'rating_en' : 4.4,
		'rating_cn' : 4.4,
		'starCount' : 4,
		'latitude' : "39.91580582",
		'longitude' : "116.4157325",
		'originalHotelID' : "385117",
		'source' : "c"
	},
	{
		'id' : 68,
		'name_en' : "Sunworld Hotel",
		'name_cn' : "北京天伦松鹤大饭店",
		'rating_en' : 4.4,
		'rating_cn' : 4.4,
		'starCount' : 4,
		'latitude' : "39.91811",
		'longitude' : "116.413291",
		'originalHotelID' : "443694",
		'source' : "c"
	},
	{
		'id' : 69,
		'name_en' : "The Opposite House",
		'name_cn' : "北京瑜舍",
		'rating_en' : 4.7,
		'rating_cn' : 4.7,
		'starCount' : 6,
		'latitude' : "39.9376844907668",
		'longitude' : "116.455166637897",
		'originalHotelID' : "429206",
		'source' : "c"
	},
	{
		'id' : 70,
		'name_en' : "Feitian Hotel Beijing",
		'name_cn' : "北京飞天大厦",
		'rating_en' : 4.4,
		'rating_cn' : 4.4,
		'starCount' : 4,
		'latitude' : "39.891542",
		'longitude' : "116.445464",
		'originalHotelID' : "456476",
		'source' : "c"
	},
	{
		'id' : 71,
		'name_en' : "Beijing Wu Huan Hotel",
		'name_cn' : "北京五环大酒店",
		'rating_en' : 4.1,
		'rating_cn' : 4.1,
		'starCount' : 4,
		'latitude' : "39.870509",
		'longitude' : "116.459951",
		'originalHotelID' : "607153",
		'source' : "c"
	},
	{
		'id' : 72,
		'name_en' : "Beijing Shanshui Hotel",
		'name_cn' : "北京山水宾馆",
		'rating_en' : 4.2,
		'rating_cn' : 4.2,
		'starCount' : 4,
		'latitude' : "39.910576",
		'longitude' : "116.37173",
		'originalHotelID' : "481108",
		'source' : "c"
	},
	{
		'id' : 73,
		'name_en' : "Aloft Beijing, Haidian",
		'name_cn' : "北京海淀雅乐轩酒店",
		'rating_en' : 4.5,
		'rating_cn' : 4.5,
		'starCount' : 4,
		'latitude' : "39.958179",
		'longitude' : "116.279035",
		'originalHotelID' : "430250",
		'source' : "c"
	},
	{
		'id' : 74,
		'name_en' : "Yuanchenxin International Hotel",
		'name_cn' : "北京元辰鑫国际酒店",
		'rating_en' : 4.3,
		'rating_cn' : 4.3,
		'starCount' : 4,
		'latitude' : "39.973242",
		'longitude' : "116.382329",
		'originalHotelID' : "457172",
		'source' : "c"
	},
	{
		'id' : 75,
		'name_en' : "Gloria Plaza Hotel Dongsheng",
		'name_cn' : "北京东升凯莱酒店",
		'rating_en' : 4.5,
		'rating_cn' : 4.5,
		'starCount' : 5,
		'latitude' : "40.045439613762",
		'longitude' : "116.357595920563",
		'originalHotelID' : "457205",
		'source' : "c"
	},
	{
		'id' : 76,
		'name_en' : "北京朗麗茲西山花園酒店",
		'name_cn' : "北京朗丽兹西山花园酒店",
		'rating_en' : 4.6,
		'rating_cn' : 4.6,
		'starCount' : 5,
		'latitude' : "40.068548",
		'longitude' : "116.2474",
		'originalHotelID' : "1288173",
		'source' : "c"
	},
	{
		'id' : 80,
		'name_en' : "北京途家斯維登度假酒店（懷柔長城故事）",
		'name_cn' : "北京途家斯维登度假酒店（怀柔长城故事）",
		'rating_en' : 4.6,
		'rating_cn' : 4.6,
		'starCount' : 4,
		'latitude' : "40.425602",
		'longitude' : "116.558397",
		'originalHotelID' : "2221335",
		'source' : "c"
	},
	{
		'id' : 81,
		'name_en' : "Hotel Nikko New Century Beijing ",
		'name_cn' : "北京新世纪日航饭店",
		'rating_en' : 4.4,
		'rating_cn' : 4.4,
		'starCount' : 5,
		'latitude' : "-1",
		'longitude' : "-1",
		'originalHotelID' : "428586",
		'source' : "c"
	},
	{
		'id' : 82,
		'name_en' : "Four Seasons Hotel Beijing",
		'name_cn' : "北京四季酒店",
		'rating_en' : 4.8,
		'rating_cn' : 4.8,
		'starCount' : 6,
		'latitude' : "39.950272",
		'longitude' : "116.466397",
		'originalHotelID' : "391750",
		'source' : "c"
	},
	{
		'id' : 84,
		'name_en' : "Novotel Beijing Xinqiao",
		'name_cn' : "北京新侨诺富特饭店",
		'rating_en' : 4.4,
		'rating_cn' : 4.4,
		'starCount' : 4,
		'latitude' : "39.901689",
		'longitude' : "116.416883",
		'originalHotelID' : "374787",
		'source' : "c"
	},
	{
		'id' : 85,
		'name_en' : "Capital Hotel",
		'name_cn' : "北京首都大酒店",
		'rating_en' : 4.5,
		'rating_cn' : 4.5,
		'starCount' : 5,
		'latitude' : "39.902136",
		'longitude' : "116.409383",
		'originalHotelID' : "374781",
		'source' : "c"
	},
	{
		'id' : 86,
		'name_en' : "Grand Hyatt Beijing",
		'name_cn' : "北京东方君悦大酒店",
		'rating_en' : 4.7,
		'rating_cn' : 4.7,
		'starCount' : 5,
		'latitude' : "39.9096349072713",
		'longitude' : "116.414621025324",
		'originalHotelID' : "347426",
		'source' : "c"
	},
	{
		'id' : 87,
		'name_en' : "The Peninsula Beijing",
		'name_cn' : "北京王府半岛酒店",
		'rating_en' : 4.6,
		'rating_cn' : 4.6,
		'starCount' : 5,
		'latitude' : "39.9153498",
		'longitude' : "116.4164271",
		'originalHotelID' : "374792",
		'source' : "c"
	},
	{
		'id' : 88,
		'name_en' : "V-Continent Beijing Parkview Wuzhou Hotel",
		'name_cn' : "北京五洲皇冠国际酒店",
		'rating_en' : 4.6,
		'rating_cn' : 4.6,
		'starCount' : 5,
		'latitude' : "39.989915",
		'longitude' : "116.405578",
		'originalHotelID' : "375096",
		'source' : "c"
	},
	{
		'id' : 89,
		'name_en' : "Legendale Hotel Beijing",
		'name_cn' : "北京励骏酒店",
		'rating_en' : 4.8,
		'rating_cn' : 4.8,
		'starCount' : 5,
		'latitude' : "39.915011",
		'longitude' : "116.418933",
		'originalHotelID' : "429203",
		'source' : "c"
	},
	{
		'id' : 90,
		'name_en' : "Jinglun Hotel",
		'name_cn' : "北京京伦饭店",
		'rating_en' : 4.3,
		'rating_cn' : 4.3,
		'starCount' : 4,
		'latitude' : "39.909004",
		'longitude' : "116.454721",
		'originalHotelID' : "374791",
		'source' : "c"
	},
	{
		'id' : 91,
		'name_en' : "Regent Beijing",
		'name_cn' : "北京丽晶酒店",
		'rating_en' : 4.7,
		'rating_cn' : 4.7,
		'starCount' : 5,
		'latitude' : "39.916167",
		'longitude' : "116.41895",
		'originalHotelID' : "369700",
		'source' : "c"
	},
	{
		'id' : 93,
		'name_en' : "Hotel Kunlun",
		'name_cn' : "北京昆仑饭店",
		'rating_en' : 4.7,
		'rating_cn' : 4.7,
		'starCount' : 5,
		'latitude' : "39.94851351",
		'longitude' : "116.4598632",
		'originalHotelID' : "396423",
		'source' : "c"
	},
	{
		'id' : 94,
		'name_en' : "Sofitel Wanda Beijing",
		'name_cn' : "北京万达索菲特大饭店",
		'rating_en' : 4.6,
		'rating_cn' : 4.6,
		'starCount' : 5,
		'latitude' : "39.909279",
		'longitude' : "116.4701",
		'originalHotelID' : "375511",
		'source' : "c"
	},
	{
		'id' : 96,
		'name_en' : "Grand Metropark Yuantong Hotel Beijing",
		'name_cn' : "北京远通维景国际大酒店",
		'rating_en' : 4.6,
		'rating_cn' : 4.6,
		'starCount' : 5,
		'latitude' : "39.93144942",
		'longitude' : "116.3565682",
		'originalHotelID' : "429037",
		'source' : "c"
	},
	{
		'id' : 97,
		'name_en' : "Empark Grand Hotel",
		'name_cn' : "北京世纪金源大饭店",
		'rating_en' : 4.5,
		'rating_cn' : 4.5,
		'starCount' : 5,
		'latitude' : "39.95264677",
		'longitude' : "116.2793584",
		'originalHotelID' : "426113",
		'source' : "c"
	},
	{
		'id' : 98,
		'name_en' : "Beijing International Hotel",
		'name_cn' : "北京国际饭店",
		'rating_en' : 4.5,
		'rating_cn' : 4.5,
		'starCount' : 5,
		'latitude' : "39.909781",
		'longitude' : "116.428304",
		'originalHotelID' : "427870",
		'source' : "c"
	},
	{
		'id' : 99,
		'name_en' : "Hilton Beijing Capital Airport Hotel",
		'name_cn' : "北京首都机场希尔顿酒店",
		'rating_en' : 4.7,
		'rating_cn' : 4.7,
		'starCount' : 4,
		'latitude' : "40.0490123027501",
		'longitude' : "116.619755029678",
		'originalHotelID' : "369708",
		'source' : "c"
	},
	{
		'id' : 100,
		'name_en' : "Beijing Minzu Hotel",
		'name_cn' : "北京民族饭店",
		'rating_en' : 4.4,
		'rating_cn' : 4.4,
		'starCount' : 4,
		'latitude' : "39.90762673",
		'longitude' : "116.3663941",
		'originalHotelID' : "429511",
		'source' : "c"
	},
	{
		'id' : 102,
		'name_en' : "Baifuyi Hotel",
		'name_cn' : "北京百富怡大酒店",
		'rating_en' : 4.6,
		'rating_cn' : 4.6,
		'starCount' : 4,
		'latitude' : "39.943338",
		'longitude' : "116.44407",
		'originalHotelID' : "749504",
		'source' : "c"
	},
	{
		'id' : 103,
		'name_en' : "Crowne Plaza Beijing Sun Palace",
		'name_cn' : "北京新云南皇冠假日酒店",
		'rating_en' : 4.6,
		'rating_cn' : 4.6,
		'starCount' : 5,
		'latitude' : "39.9710523484265",
		'longitude' : "116.434156894684",
		'originalHotelID' : "430265",
		'source' : "c"
	},
	{
		'id' : 104,
		'name_en' : "Grand Concordia Hotel",
		'name_cn' : "北京鹏润国际大酒店",
		'rating_en' : 4.5,
		'rating_cn' : 4.5,
		'starCount' : 5,
		'latitude' : "39.959203",
		'longitude' : "116.466225",
		'originalHotelID' : "427091",
		'source' : "c"
	},
	{
		'id' : 105,
		'name_en' : "W Beijing Chang’an",
		'name_cn' : "北京长安街W酒店",
		'rating_en' : 4.7,
		'rating_cn' : 4.7,
		'starCount' : 4,
		'latitude' : "39.906181",
		'longitude' : "116.436882",
		'originalHotelID' : "1286148",
		'source' : "c"
	},
	{
		'id' : 107,
		'name_en' : "Water Town Hotel",
		'name_cn' : "北京古北水镇大酒店",
		'rating_en' : 4.7,
		'rating_cn' : 4.7,
		'starCount' : 5,
		'latitude' : "40.650895",
		'longitude' : "117.267352",
		'originalHotelID' : "1047921",
		'source' : "c"
	},
	{
		'id' : 108,
		'name_en' : "Liaoning International Hotel",
		'name_cn' : "北京辽宁大厦",
		'rating_en' : 4.5,
		'rating_cn' : 4.5,
		'starCount' : 5,
		'latitude' : "39.985104",
		'longitude' : "116.337008",
		'originalHotelID' : "434120",
		'source' : "c"
	},
	{
		'id' : 109,
		'name_en' : "Grand Mercure Beijing Central",
		'name_cn' : "北京西单美爵酒店",
		'rating_en' : 4.4,
		'rating_cn' : 4.4,
		'starCount' : 4,
		'latitude' : "39.90343495",
		'longitude' : "116.3747236",
		'originalHotelID' : "345029",
		'source' : "c"
	},
	{
		'id' : 110,
		'name_en' : "Fragrant Hill Empark Hotel ",
		'name_cn' : "北京世纪金源香山商旅酒店",
		'rating_en' : 4.6,
		'rating_cn' : 4.6,
		'starCount' : 5,
		'latitude' : "39.991268",
		'longitude' : "116.202859",
		'originalHotelID' : "483697",
		'source' : "c"
	},
	{
		'id' : 111,
		'name_en' : "Best Western OL Stadium Hotel Beijing",
		'name_cn' : "北京亚奥国际酒店",
		'rating_en' : 4.4,
		'rating_cn' : 4.4,
		'starCount' : 4,
		'latitude' : "40.001062",
		'longitude' : "116.371633",
		'originalHotelID' : "434854",
		'source' : "c"
	},
	{
		'id' : 112,
		'name_en' : "Jianguo Garden Hotel",
		'name_cn' : "北京好苑建国酒店",
		'rating_en' : 4.5,
		'rating_cn' : 4.5,
		'starCount' : 5,
		'latitude' : "39.9088638893082",
		'longitude' : "116.423771381378",
		'originalHotelID' : "427874",
		'source' : "c"
	},
	{
		'id' : 113,
		'name_en' : "Renaissance  Beijing Wangfujing Hotel",
		'name_cn' : "北京金茂万丽酒店",
		'rating_en' : 4.6,
		'rating_cn' : 4.6,
		'starCount' : 5,
		'latitude' : "39.921187",
		'longitude' : "116.410661",
		'originalHotelID' : "1171705",
		'source' : "c"
	},
	{
		'id' : 114,
		'name_en' : "Dongjiao Minxiang Hotel",
		'name_cn' : "北京东交民巷饭店",
		'rating_en' : 4.2,
		'rating_cn' : 4.2,
		'starCount' : 4,
		'latitude' : "39.902743",
		'longitude' : "116.407739",
		'originalHotelID' : "427151",
		'source' : "c"
	},
	{
		'id' : 116,
		'name_en' : "Bo Xing Plaza ",
		'name_cn' : "锦江都成酒店（北京军事博物馆店）（原兴博酒店）",
		'rating_en' : 4.4,
		'rating_cn' : 4.4,
		'starCount' : 4,
		'latitude' : "39.910229",
		'longitude' : "116.322266",
		'originalHotelID' : "1789406",
		'source' : "c"
	},
	{
		'id' : 117,
		'name_en' : "Joy City Hotel & Apartment",
		'name_cn' : "北京大悦城酒店公寓",
		'rating_en' : 4.4,
		'rating_cn' : 4.4,
		'starCount' : 5,
		'latitude' : "39.91096793",
		'longitude' : "116.373479",
		'originalHotelID' : "429509",
		'source' : "c"
	},
	{
		'id' : 118,
		'name_en' : "Raffles Beijing Hotel",
		'name_cn' : "北京饭店莱佛士",
		'rating_en' : 4.7,
		'rating_cn' : 4.7,
		'starCount' : 4,
		'latitude' : "39.9088",
		'longitude' : "116.4102353",
		'originalHotelID' : "419961",
		'source' : "c"
	},
	{
		'id' : 119,
		'name_en' : "Kuntai Royal Hotel Beijing",
		'name_cn' : "北京昆泰嘉华酒店",
		'rating_en' : 4.6,
		'rating_cn' : 4.6,
		'starCount' : 5,
		'latitude' : "39.923165",
		'longitude' : "116.442338",
		'originalHotelID' : "429533",
		'source' : "c"
	},
	{
		'id' : 120,
		'name_en' : "SciTech Hotel",
		'name_cn' : "北京赛特饭店",
		'rating_en' : 4.1,
		'rating_cn' : 4.1,
		'starCount' : 4,
		'latitude' : "39.906671",
		'longitude' : "116.441731",
		'originalHotelID' : "455053",
		'source' : "c"
	},
	{
		'id' : 122,
		'name_en' : "Radegast Hotel CBD Beijing",
		'name_cn' : "北京伯豪瑞廷酒店",
		'rating_en' : 4.6,
		'rating_cn' : 4.6,
		'starCount' : 5,
		'latitude' : "39.914194",
		'longitude' : "116.471424",
		'originalHotelID' : "374795",
		'source' : "c"
	},
	{
		'id' : 123,
		'name_en' : "Langham Place Beijing Capital Airport",
		'name_cn' : "北京首都机场朗豪酒店",
		'rating_en' : 4.7,
		'rating_cn' : 4.7,
		'starCount' : 4,
		'latitude' : "40.048839",
		'longitude' : "116.612579",
		'originalHotelID' : "375093",
		'source' : "c"
	},
	{
		'id' : 124,
		'name_en' : "Merchantel",
		'name_cn' : "北京广电国际酒店",
		'rating_en' : 4.6,
		'rating_cn' : 4.6,
		'starCount' : 4,
		'latitude' : "39.903813",
		'longitude' : "116.355019",
		'originalHotelID' : "431614",
		'source' : "c"
	},
	{
		'id' : 125,
		'name_en' : "Starway Premier Tianan Rega Hotel Beijing",
		'name_cn' : "北京天安瑞嘉酒店",
		'rating_en' : 4.4,
		'rating_cn' : 4.4,
		'starCount' : 4,
		'latitude' : "39.909918",
		'longitude' : "116.407183",
		'originalHotelID' : "436887",
		'source' : "c"
	},
	{
		'id' : 126,
		'name_en' : "Wanda Realm Beijing",
		'name_cn' : "北京万达嘉华酒店",
		'rating_en' : 4.6,
		'rating_cn' : 4.6,
		'starCount' : 5,
		'latitude' : "39.9068105423047",
		'longitude' : "116.227788711623",
		'originalHotelID' : "430004",
		'source' : "c"
	},
	{
		'id' : 127,
		'name_en' : "Kerry Hotel, Beijing",
		'name_cn' : "北京嘉里大酒店",
		'rating_en' : 4.8,
		'rating_cn' : 4.8,
		'starCount' : 5,
		'latitude' : "39.91406355",
		'longitude' : "116.458167",
		'originalHotelID' : "347422",
		'source' : "c"
	},
	{
		'id' : 130,
		'name_en' : "Beijing Asia Hotel",
		'name_cn' : "北京亚洲大酒店",
		'rating_en' : 4.5,
		'rating_cn' : 4.5,
		'starCount' : 5,
		'latitude' : "39.932781",
		'longitude' : "116.439304",
		'originalHotelID' : "396425",
		'source' : "c"
	},
	{
		'id' : 131,
		'name_en' : "Hilton Beijing",
		'name_cn' : "北京希尔顿酒店",
		'rating_en' : 4.6,
		'rating_cn' : 4.6,
		'starCount' : 5,
		'latitude' : "39.952703",
		'longitude' : "116.462387",
		'originalHotelID' : "347414",
		'source' : "c"
	},
	{
		'id' : 132,
		'name_en' : "JW Marriott Hotel Beijing Central",
		'name_cn' : "北京珠三角JW万豪酒店",
		'rating_en' : 4.7,
		'rating_cn' : 4.7,
		'starCount' : 4,
		'latitude' : "39.895374",
		'longitude' : "116.375084",
		'originalHotelID' : "997715",
		'source' : "c"
	},
	{
		'id' : 133,
		'name_en' : "Waldorf Astoria Beijing",
		'name_cn' : "北京华尔道夫酒店",
		'rating_en' : 4.8,
		'rating_cn' : 4.8,
		'starCount' : 6,
		'latitude' : "39.916027",
		'longitude' : "116.414068",
		'originalHotelID' : "735707",
		'source' : "c"
	},
	{
		'id' : 134,
		'name_en' : "Fairmont Beijing",
		'name_cn' : "北京华彬费尔蒙酒店",
		'rating_en' : 4.6,
		'rating_cn' : 4.6,
		'starCount' : 4,
		'latitude' : "39.905512",
		'longitude' : "116.452066",
		'originalHotelID' : "374776",
		'source' : "c"
	},
	{
		'id' : 135,
		'name_en' : "Marco Polo Parkside Beijing",
		'name_cn' : "北京中奥马哥孛罗大酒店",
		'rating_en' : 4.5,
		'rating_cn' : 4.5,
		'starCount' : 5,
		'latitude' : "40.00555583",
		'longitude' : "116.4098345",
		'originalHotelID' : "345025",
		'source' : "c"
	},
	{
		'id' : 136,
		'name_en' : "Doubletree by Hilton Beijing",
		'name_cn' : "北京希尔顿逸林酒店",
		'rating_en' : 4.5,
		'rating_cn' : 4.5,
		'starCount' : 5,
		'latitude' : "39.888904",
		'longitude' : "116.340584",
		'originalHotelID' : "369745",
		'source' : "c"
	},
	{
		'id' : 137,
		'name_en' : "Grand Hotel Beijing",
		'name_cn' : "北京贵宾楼饭店",
		'rating_en' : 4.6,
		'rating_cn' : 4.6,
		'starCount' : 5,
		'latitude' : "39.90838242",
		'longitude' : "116.4071952",
		'originalHotelID' : "429158",
		'source' : "c"
	},
	{
		'id' : 138,
		'name_en' : "Holiday Inn Beijing Chang An West",
		'name_cn' : "北京长峰假日酒店",
		'rating_en' : 4.5,
		'rating_cn' : 4.5,
		'starCount' : 4,
		'latitude' : "39.908991",
		'longitude' : "116.265188",
		'originalHotelID' : "430214",
		'source' : "c"
	},
	{
		'id' : 139,
		'name_en' : "Capital Airport International Hotel",
		'name_cn' : "北京首都机场国际酒店",
		'rating_en' : 4,
		'rating_cn' : 4,
		'starCount' : 4,
		'latitude' : "40.081592",
		'longitude' : "116.587909",
		'originalHotelID' : "534568",
		'source' : "c"
	},
	{
		'id' : 140,
		'name_en' : "Friendship Hotel",
		'name_cn' : "北京友谊宾馆",
		'rating_en' : 4.3,
		'rating_cn' : 4.3,
		'starCount' : 4,
		'latitude' : "39.964084",
		'longitude' : "116.321102",
		'originalHotelID' : "481675",
		'source' : "c"
	},
	{
		'id' : 142,
		'name_en' : "Oriental Bay International Hotel",
		'name_cn' : "北京汉华国际饭店",
		'rating_en' : 4.5,
		'rating_cn' : 4.5,
		'starCount' : 5,
		'latitude' : "39.950322",
		'longitude' : "116.397851",
		'originalHotelID' : "431623",
		'source' : "c"
	},
	{
		'id' : 143,
		'name_en' : "Commune by the Great Wall",
		'name_cn' : "北京长城脚下的公社",
		'rating_en' : 4.3,
		'rating_cn' : 4.3,
		'starCount' : 5,
		'latitude' : "40.3403278548169",
		'longitude' : "116.055376678705",
		'originalHotelID' : "457536",
		'source' : "c"
	},
	{
		'id' : 144,
		'name_en' : "Guidu Hotel",
		'name_cn' : "北京贵都大酒店",
		'rating_en' : 4.5,
		'rating_cn' : 4.5,
		'starCount' : 4,
		'latitude' : "39.88984659",
		'longitude' : "116.3675048",
		'originalHotelID' : "429507",
		'source' : "c"
	},
	{
		'id' : 146,
		'name_en' : "Beijing Broadcasting Tower Hotel",
		'name_cn' : "北京广播大厦酒店",
		'rating_en' : 4.5,
		'rating_cn' : 4.5,
		'starCount' : 4,
		'latitude' : "39.907462",
		'longitude' : "116.443191",
		'originalHotelID' : "776692",
		'source' : "c"
	},
	{
		'id' : 147,
		'name_en' : "Zhaolong Hotel",
		'name_cn' : "北京兆龙饭店",
		'rating_en' : 4.4,
		'rating_cn' : 4.4,
		'starCount' : 5,
		'latitude' : "39.9332072",
		'longitude' : "116.4605123",
		'originalHotelID' : "426244",
		'source' : "c"
	},
	{
		'id' : 148,
		'name_en' : "Kempinski Hotel Beijing Lufthansa Center",
		'name_cn' : "北京燕莎中心凯宾斯基饭店",
		'rating_en' : 4.6,
		'rating_cn' : 4.6,
		'starCount' : 5,
		'latitude' : "39.94927877",
		'longitude' : "116.4651266",
		'originalHotelID' : "347312",
		'source' : "c"
	},
	{
		'id' : 149,
		'name_en' : "Rainbow Hotel",
		'name_cn' : "北京新北纬饭店",
		'rating_en' : 4.3,
		'rating_cn' : 4.3,
		'starCount' : 4,
		'latitude' : "39.884301",
		'longitude' : "116.389505",
		'originalHotelID' : "375220",
		'source' : "c"
	},
	{
		'id' : 150,
		'name_en' : "Park Plaza Beijing Wangfujing",
		'name_cn' : "北京丽亭酒店",
		'rating_en' : 4.7,
		'rating_cn' : 4.7,
		'starCount' : 4,
		'latitude' : "39.916573",
		'longitude' : "116.419458",
		'originalHotelID' : "425031",
		'source' : "c"
	},
	{
		'id' : 151,
		'name_en' : "Four Points by Sheraton Beijing, Haidian Hotel",
		'name_cn' : "北京海淀永泰福朋喜来登酒店",
		'rating_en' : 4.5,
		'rating_cn' : 4.5,
		'starCount' : 5,
		'latitude' : "39.9575589",
		'longitude' : "116.2804575",
		'originalHotelID' : "430601",
		'source' : "c"
	},
	{
		'id' : 152,
		'name_en' : "Mercure Beijing Downtown",
		'name_cn' : "北京华腾美居酒店",
		'rating_en' : 4.4,
		'rating_cn' : 4.4,
		'starCount' : 4,
		'latitude' : "39.899741",
		'longitude' : "116.479881",
		'originalHotelID' : "374788",
		'source' : "c"
	},
	{
		'id' : 153,
		'name_en' : "Heyuan Royal Garden Hotel",
		'name_cn' : "北京和园景逸大酒店",
		'rating_en' : 4.4,
		'rating_cn' : 4.4,
		'starCount' : 5,
		'latitude' : "40.085636",
		'longitude' : "116.486682",
		'originalHotelID' : "533005",
		'source' : "c"
	},
	{
		'id' : 154,
		'name_en' : "Ritan Hotel Beijing",
		'name_cn' : "北京日坛宾馆",
		'rating_en' : 4.6,
		'rating_cn' : 4.6,
		'starCount' : 5,
		'latitude' : "39.917315",
		'longitude' : "116.440384",
		'originalHotelID' : "452641",
		'source' : "c"
	},
	{
		'id' : 155,
		'name_en' : "BTG Fragrant Hill Hotel",
		'name_cn' : "北京香山饭店",
		'rating_en' : 4.2,
		'rating_cn' : 4.2,
		'starCount' : 4,
		'latitude' : "39.989759",
		'longitude' : "116.194596",
		'originalHotelID' : "454164",
		'source' : "c"
	},
	{
		'id' : 157,
		'name_en' : "Grand Skylight Catic Hotel Beijing",
		'name_cn' : "北京凯迪克格兰云天大酒店",
		'rating_en' : 4.6,
		'rating_cn' : 4.6,
		'starCount' : 5,
		'latitude' : "39.992925",
		'longitude' : "116.40025",
		'originalHotelID' : "661096",
		'source' : "c"
	},
	{
		'id' : 158,
		'name_en' : "Pullman Beijing South",
		'name_cn' : "北京兴基铂尔曼饭店",
		'rating_en' : 4.4,
		'rating_cn' : 4.4,
		'starCount' : 5,
		'latitude' : "39.786799072659",
		'longitude' : "116.515234708786",
		'originalHotelID' : "430008",
		'source' : "c"
	},
	{
		'id' : 159,
		'name_en' : "Han\'s Royal Garden Hotel",
		'name_cn' : "北京涵珍园国际酒店",
		'rating_en' : 4.6,
		'rating_cn' : 4.6,
		'starCount' : 5,
		'latitude' : "39.93574934",
		'longitude' : "116.4040759",
		'originalHotelID' : "431897",
		'source' : "c"
	},
	{
		'id' : 160,
		'name_en' : "Jianguo Hotel Qianmen",
		'name_cn' : "北京前门建国饭店（京剧文化主题饭店）",
		'rating_en' : 4.5,
		'rating_cn' : 4.5,
		'starCount' : 4,
		'latitude' : "39.886654",
		'longitude' : "116.385579",
		'originalHotelID' : "482983",
		'source' : "c"
	},
	{
		'id' : 161,
		'name_en' : "Yuyang Hotel",
		'name_cn' : "北京渔阳饭店",
		'rating_en' : 4.3,
		'rating_cn' : 4.3,
		'starCount' : 5,
		'latitude' : "39.945964",
		'longitude' : "116.447762",
		'originalHotelID' : "439311",
		'source' : "c"
	},
	{
		'id' : 162,
		'name_en' : "Lee Garden Service Apartments",
		'name_cn' : "北京丽苑公寓",
		'rating_en' : 4.6,
		'rating_cn' : 4.6,
		'starCount' : 4,
		'latitude' : "39.915173",
		'longitude' : "116.414622",
		'originalHotelID' : "661166",
		'source' : "c"
	},
	{
		'id' : 163,
		'name_en' : "Beijing Foreign Experts Building",
		'name_cn' : "北京外国专家大厦",
		'rating_en' : 4.3,
		'rating_cn' : 4.3,
		'starCount' : 4,
		'latitude' : "39.987004",
		'longitude' : "116.381717",
		'originalHotelID' : "457242",
		'source' : "c"
	},
	{
		'id' : 164,
		'name_en' : "Jade Garden Hotel",
		'name_cn' : "北京翠明庄宾馆",
		'rating_en' : 4.5,
		'rating_cn' : 4.5,
		'starCount' : 4,
		'latitude' : "39.914841",
		'longitude' : "116.40617",
		'originalHotelID' : "427321",
		'source' : "c"
	},
	{
		'id' : 165,
		'name_en' : "Beijing Marriott Hotel City Wall",
		'name_cn' : "北京万豪酒店",
		'rating_en' : 4.5,
		'rating_cn' : 4.5,
		'starCount' : 5,
		'latitude' : "39.904737",
		'longitude' : "116.434499",
		'originalHotelID' : "374775",
		'source' : "c"
	},
	{
		'id' : 166,
		'name_en' : "Howard Johnson Paragon Hotel",
		'name_cn' : "北京宝辰饭店",
		'rating_en' : 4.5,
		'rating_cn' : 4.5,
		'starCount' : 4,
		'latitude' : "39.905868",
		'longitude' : "116.429243",
		'originalHotelID' : "430030",
		'source' : "c"
	},
	{
		'id' : 167,
		'name_en' : "Donghuang Hotel",
		'name_cn' : "北京东煌酒店",
		'rating_en' : 4.4,
		'rating_cn' : 4.4,
		'starCount' : 4,
		'latitude' : "39.9868737201447",
		'longitude' : "116.479679346085",
		'originalHotelID' : "429484",
		'source' : "c"
	},
	{
		'id' : 168,
		'name_en' : "Changbaishan International Hotel",
		'name_cn' : "北京长白山国际酒店",
		'rating_en' : 4.4,
		'rating_cn' : 4.4,
		'starCount' : 5,
		'latitude' : "39.984833",
		'longitude' : "116.410305",
		'originalHotelID' : "431617",
		'source' : "c"
	},
	{
		'id' : 169,
		'name_en' : "Jingguang Center Apartment Hotel",
		'name_cn' : "北京京广中心酒店公寓",
		'rating_en' : 4.4,
		'rating_cn' : 4.4,
		'starCount' : 5,
		'latitude' : "39.920387",
		'longitude' : "116.460579",
		'originalHotelID' : "669249",
		'source' : "c"
	},
	{
		'id' : 170,
		'name_en' : "Oriental Garden Hotel",
		'name_cn' : "北京东方花园饭店",
		'rating_en' : 4.5,
		'rating_cn' : 4.5,
		'starCount' : 4,
		'latitude' : "39.938085",
		'longitude' : "116.434902",
		'originalHotelID' : "396427",
		'source' : "c"
	},
	{
		'id' : 171,
		'name_en' : "Grand Mercure Beijing Dongcheng",
		'name_cn' : "北京东方美爵酒店",
		'rating_en' : 4.6,
		'rating_cn' : 4.6,
		'starCount' : 5,
		'latitude' : "39.941347",
		'longitude' : "116.41205",
		'originalHotelID' : "1085773",
		'source' : "c"
	},
	{
		'id' : 172,
		'name_en' : "Rosedale Hotel & Suites Beijing",
		'name_cn' : "北京珀丽酒店",
		'rating_en' : 4.1,
		'rating_cn' : 4.1,
		'starCount' : 4,
		'latitude' : "39.973852",
		'longitude' : "116.477882",
		'originalHotelID' : "436258",
		'source' : "c"
	},
	{
		'id' : 173,
		'name_en' : "Beijing Springs Valley Hotel",
		'name_cn' : "北京泉谷酒店（文化主题酒店）",
		'rating_en' : 4.3,
		'rating_cn' : 4.3,
		'starCount' : 4,
		'latitude' : "39.886194",
		'longitude' : "116.430898",
		'originalHotelID' : "426347",
		'source' : "c"
	},
	{
		'id' : 174,
		'name_en' : "Cineaste Garden Hotel",
		'name_cn' : "北京益田影人花园酒店",
		'rating_en' : 4.5,
		'rating_cn' : 4.5,
		'starCount' : 5,
		'latitude' : "40.290733",
		'longitude' : "116.6757",
		'originalHotelID' : "447622",
		'source' : "c"
	},
	{
		'id' : 175,
		'name_en' : "Landmark Towers Hotel",
		'name_cn' : "北京亮马河饭店",
		'rating_en' : 4.3,
		'rating_cn' : 4.3,
		'starCount' : 4,
		'latitude' : "39.945961",
		'longitude' : "116.462746",
		'originalHotelID' : "467325",
		'source' : "c"
	},
	{
		'id' : 176,
		'name_en' : "Asia Pacific Garden Hotel",
		'name_cn' : "北京亚太花园酒店",
		'rating_en' : 4.3,
		'rating_cn' : 4.3,
		'starCount' : 4,
		'latitude' : "39.886921",
		'longitude' : "116.671038",
		'originalHotelID' : "2277948",
		'source' : "c"
	},
	{
		'id' : 177,
		'name_en' : "Lake View Hotel",
		'name_cn' : "北京人卫酒店",
		'rating_en' : 4.5,
		'rating_cn' : 4.5,
		'starCount' : 5,
		'latitude' : "39.875832",
		'longitude' : "116.445777",
		'originalHotelID' : "427497",
		'source' : "c"
	},
	{
		'id' : 178,
		'name_en' : "Hunan Hotel",
		'name_cn' : "湖南大厦",
		'rating_en' : 4.6,
		'rating_cn' : 4.6,
		'starCount' : 5,
		'latitude' : "39.906658",
		'longitude' : "116.426402",
		'originalHotelID' : "431373",
		'source' : "c"
	},
	{
		'id' : 179,
		'name_en' : "Hotel Eclat Beijing",
		'name_cn' : "北京怡亨酒店",
		'rating_en' : 4.8,
		'rating_cn' : 4.8,
		'starCount' : 6,
		'latitude' : "39.9203783632377",
		'longitude' : "116.450156271458",
		'originalHotelID' : "440874",
		'source' : "c"
	},
	{
		'id' : 180,
		'name_en' : "Beijing Continental Grand Hotel",
		'name_cn' : "北京五洲大酒店",
		'rating_en' : 4.4,
		'rating_cn' : 4.4,
		'starCount' : 4,
		'latitude' : "39.989379",
		'longitude' : "116.404237",
		'originalHotelID' : "444709",
		'source' : "c"
	},
	{
		'id' : 181,
		'name_en' : "Beijing Pangu 7 Star Hotel",
		'name_cn' : "北京盘古七星酒店",
		'rating_en' : 4.8,
		'rating_cn' : 4.8,
		'starCount' : 6,
		'latitude' : "39.989151",
		'longitude' : "116.386955",
		'originalHotelID' : "429034",
		'source' : "c"
	},
	{
		'id' : 182,
		'name_en' : "Gehua New Century Hotel Beijing",
		'name_cn' : "北京歌华开元大酒店",
		'rating_en' : 4.6,
		'rating_cn' : 4.6,
		'starCount' : 5,
		'latitude' : "39.965122",
		'longitude' : "116.393668",
		'originalHotelID' : "369673",
		'source' : "c"
	},
	{
		'id' : 183,
		'name_en' : "Media Center Hotel",
		'name_cn' : "北京梅地亚中心",
		'rating_en' : 4.3,
		'rating_cn' : 4.3,
		'starCount' : 4,
		'latitude' : "39.91033",
		'longitude' : "116.320178",
		'originalHotelID' : "980123",
		'source' : "c"
	},
	{
		'id' : 184,
		'name_en' : "Beijing Nanjing Great Hotel",
		'name_cn' : "南京大饭店",
		'rating_en' : 4.5,
		'rating_cn' : 4.5,
		'starCount' : 4,
		'latitude' : "39.914484",
		'longitude' : "116.408711",
		'originalHotelID' : "1380153",
		'source' : "c"
	},
	{
		'id' : 185,
		'name_en' : "Aman Summer Palace",
		'name_cn' : "北京颐和安缦酒店",
		'rating_en' : 4.7,
		'rating_cn' : 4.7,
		'starCount' : 4,
		'latitude' : "39.999246",
		'longitude' : "116.282762",
		'originalHotelID' : "436911",
		'source' : "c"
	},
	{
		'id' : 186,
		'name_en' : "King Wing Hot Spring Hotel",
		'name_cn' : "北京京瑞温泉国际酒店",
		'rating_en' : 4.1,
		'rating_cn' : 4.1,
		'starCount' : 5,
		'latitude' : "39.86988165",
		'longitude' : "116.4602191",
		'originalHotelID' : "429520",
		'source' : "c"
	},
	{
		'id' : 187,
		'name_en' : "Oak Chateau Beijing",
		'name_cn' : "北京橡树公馆",
		'rating_en' : 4.5,
		'rating_cn' : 4.5,
		'starCount' : 4,
		'latitude' : "39.95785",
		'longitude' : "116.459177",
		'originalHotelID' : "534173",
		'source' : "c"
	},
	{
		'id' : 188,
		'name_en' : "Guizhou Mansion",
		'name_cn' : "北京贵州大厦",
		'rating_en' : 4.5,
		'rating_cn' : 4.5,
		'starCount' : 4,
		'latitude' : "39.9701",
		'longitude' : "116.418454",
		'originalHotelID' : "437222",
		'source' : "c"
	},
	{
		'id' : 189,
		'name_en' : "Go Inn Hotel",
		'name_cn' : "北京行宫国际酒店",
		'rating_en' : 4.3,
		'rating_cn' : 4.2,
		'starCount' : 5,
		'latitude' : "39.93281",
		'longitude' : "116.508232",
		'originalHotelID' : "457112",
		'source' : "c"
	},
	{
		'id' : 190,
		'name_en' : "Huiyuan Prime Hotel",
		'name_cn' : "北京北辰公寓经营管理分公司（贵宾楼）",
		'rating_en' : 4.5,
		'rating_cn' : 4.5,
		'starCount' : 4,
		'latitude' : "39.992772",
		'longitude' : "116.406112",
		'originalHotelID' : "1216806",
		'source' : "c"
	},
	{
		'id' : 191,
		'name_en' : "Mercure Wanshang Beijing",
		'name_cn' : "北京万商花园酒店",
		'rating_en' : 4.4,
		'rating_cn' : 4.4,
		'starCount' : 4,
		'latitude' : "39.90592386",
		'longitude' : "116.219602",
		'originalHotelID' : "429202",
		'source' : "c"
	},
	{
		'id' : 192,
		'name_en' : "Lijingwan International Hotel",
		'name_cn' : "北京丽景湾国际酒店",
		'rating_en' : 4.4,
		'rating_cn' : 4.4,
		'starCount' : 5,
		'latitude' : "39.920954",
		'longitude' : "116.502442",
		'originalHotelID' : "452197",
		'source' : "c"
	},
	{
		'id' : 193,
		'name_en' : "Jianyin Hotel",
		'name_cn' : "北京建银饭店",
		'rating_en' : 4,
		'rating_cn' : 4,
		'starCount' : 4,
		'latitude' : "39.888801",
		'longitude' : "116.32187",
		'originalHotelID' : "996525",
		'source' : "c"
	},
	{
		'id' : 194,
		'name_en' : "Schonbrunn Hotel",
		'name_cn' : "北京美泉宫饭店",
		'rating_en' : 4.4,
		'rating_cn' : 4.4,
		'starCount' : 5,
		'latitude' : "39.936727",
		'longitude' : "116.273046",
		'originalHotelID' : "457240",
		'source' : "c"
	},
	{
		'id' : 195,
		'name_en' : "RGHCM Garden Resorts",
		'name_cn' : "北京瑞海姆田园度假村",
		'rating_en' : 4.2,
		'rating_cn' : 4.2,
		'starCount' : 5,
		'latitude' : "40.367944",
		'longitude' : "116.833625",
		'originalHotelID' : "742641",
		'source' : "c"
	},
	{
		'id' : 196,
		'name_en' : "Xixi Youyi Hotel",
		'name_cn' : "北京西西友谊酒店",
		'rating_en' : 4.3,
		'rating_cn' : 4.3,
		'starCount' : 4,
		'latitude' : "39.91435",
		'longitude' : "116.373104",
		'originalHotelID' : "457686",
		'source' : "c"
	},
	{
		'id' : 197,
		'name_en' : "Hotel Maximilian Beijing",
		'name_cn' : "北京万世名流酒店",
		'rating_en' : 4.4,
		'rating_cn' : 4.4,
		'starCount' : 5,
		'latitude' : "40.028305",
		'longitude' : "116.439886",
		'originalHotelID' : "1373748",
		'source' : "c"
	},
	{
		'id' : 198,
		'name_en' : "Radisson Blu Hotel Beijing",
		'name_cn' : "北京皇家大饭店",
		'rating_en' : 4.4,
		'rating_cn' : 4.4,
		'starCount' : 4,
		'latitude' : "39.95990372",
		'longitude' : "116.4425269",
		'originalHotelID' : "429073",
		'source' : "c"
	},
	{
		'id' : 199,
		'name_en' : "Holiday Inn Beijing Temple of Heaven",
		'name_cn' : "北京中成天坛假日酒店",
		'rating_en' : 4.3,
		'rating_cn' : 4.3,
		'starCount' : 4,
		'latitude' : "39.86192036",
		'longitude' : "116.4148937",
		'originalHotelID' : "427531",
		'source' : "c"
	},
	{
		'id' : 201,
		'name_en' : "Beijing Friendship Hotel Grand Building",
		'name_cn' : "北京友谊宾馆贵宾楼",
		'rating_en' : 4.5,
		'rating_cn' : 4.5,
		'starCount' : 5,
		'latitude' : "39.963726",
		'longitude' : "116.320105",
		'originalHotelID' : "732835",
		'source' : "c"
	},
	{
		'id' : 202,
		'name_en' : "Gotel Capital",
		'name_cn' : "北京国泰饭店",
		'rating_en' : 4.4,
		'rating_cn' : 4.4,
		'starCount' : 4,
		'latitude' : "39.90703",
		'longitude' : "116.448619",
		'originalHotelID' : "456342",
		'source' : "c"
	},
	{
		'id' : 203,
		'name_en' : "Jianguo Hot Spring Hotel",
		'name_cn' : "北京金龙建国温泉酒店",
		'rating_en' : 4.3,
		'rating_cn' : 4.3,
		'starCount' : 4,
		'latitude' : "39.905669",
		'longitude' : "116.435064",
		'originalHotelID' : "443416",
		'source' : "c"
	},
	{
		'id' : 204,
		'name_en' : "Taiyue Suites",
		'name_cn' : "北京泰悦豪庭酒店",
		'rating_en' : 4.4,
		'rating_cn' : 4.4,
		'starCount' : 4,
		'latitude' : "39.927827",
		'longitude' : "116.455899",
		'originalHotelID' : "429044",
		'source' : "c"
	},
	{
		'id' : 205,
		'name_en' : "Ritan International Hotel",
		'name_cn' : "北京日坛国际酒店",
		'rating_en' : 4.4,
		'rating_cn' : 4.4,
		'starCount' : 5,
		'latitude' : "39.920055",
		'longitude' : "116.442741",
		'originalHotelID' : "512874",
		'source' : "c"
	},
	{
		'id' : 206,
		'name_en' : "Juny Oriental Hotel",
		'name_cn' : "北京君颐东方饭店",
		'rating_en' : 4.3,
		'rating_cn' : 4.3,
		'starCount' : 5,
		'latitude' : "39.900654",
		'longitude' : "116.268799",
		'originalHotelID' : "447575",
		'source' : "c"
	},
	{
		'id' : 211,
		'name_en' : "Guangzhou Hotel",
		'name_cn' : "广州大厦",
		'rating_en' : 4.1,
		'rating_cn' : 4.1,
		'starCount' : 4,
		'latitude' : "39.911351",
		'longitude' : "116.375984",
		'originalHotelID' : "447434",
		'source' : "c"
	},
	{
		'id' : 212,
		'name_en' : "Beijing Dong Fang Hotel",
		'name_cn' : "北京东方饭店",
		'rating_en' : 4.3,
		'rating_cn' : 4.3,
		'starCount' : 4,
		'latitude' : "39.88787908",
		'longitude' : "116.3897396",
		'originalHotelID' : "428607",
		'source' : "c"
	},
	{
		'id' : 213,
		'name_en' : "Ramada Parkside Beijing",
		'name_cn' : "北京中奥华美达大酒店",
		'rating_en' : 4.3,
		'rating_cn' : 4.3,
		'starCount' : 4,
		'latitude' : "40.005565",
		'longitude' : "116.403629",
		'originalHotelID' : "482952",
		'source' : "c"
	},
	{
		'id' : 214,
		'name_en' : "No. 9 Dacheng Road Hotel",
		'name_cn' : "北京大成路九号",
		'rating_en' : 4.5,
		'rating_cn' : 4.5,
		'starCount' : 5,
		'latitude' : "39.890655",
		'longitude' : "116.269123",
		'originalHotelID' : "468844",
		'source' : "c"
	},
	{
		'id' : 215,
		'name_en' : "Grand Gongda Jianguo Hotel",
		'name_cn' : "北京工大建国饭店",
		'rating_en' : 4.5,
		'rating_cn' : 4.5,
		'starCount' : 5,
		'latitude' : "39.872056",
		'longitude' : "116.478176",
		'originalHotelID' : "467314",
		'source' : "c"
	},
	{
		'id' : 216,
		'name_en' : "Chateau Star River",
		'name_cn' : "北京星河湾酒店",
		'rating_en' : 4.3,
		'rating_cn' : 4.3,
		'starCount' : 4,
		'latitude' : "39.9260783091423",
		'longitude' : "116.528570652008",
		'originalHotelID' : "426782",
		'source' : "c"
	},
	{
		'id' : 217,
		'name_en' : "Beijing Yanshan Hotel",
		'name_cn' : "北京燕山大酒店",
		'rating_en' : 4.2,
		'rating_cn' : 4.2,
		'starCount' : 4,
		'latitude' : "39.970287",
		'longitude' : "116.322217",
		'originalHotelID' : "455868",
		'source' : "c"
	},
	{
		'id' : 218,
		'name_en' : "D-boutique Hotel",
		'name_cn' : "北京蝶尚精品酒店",
		'rating_en' : 4.4,
		'rating_cn' : 4.4,
		'starCount' : 4,
		'latitude' : "40.006814",
		'longitude' : "116.407405",
		'originalHotelID' : "1683592",
		'source' : "c"
	},
	{
		'id' : 219,
		'name_en' : "The Emperor Beijing Tian\'anmen Square",
		'name_cn' : "北京天安门皇家驿栈酒店",
		'rating_en' : 4.5,
		'rating_cn' : 4.5,
		'starCount' : 5,
		'latitude' : "39.896256",
		'longitude' : "116.399503",
		'originalHotelID' : "848787",
		'source' : "c"
	},
	{
		'id' : 220,
		'name_en' : "Oakwood Residence Beijing",
		'name_cn' : "北京绿城奥克伍德华庭酒店公寓",
		'rating_en' : 4.5,
		'rating_cn' : 4.5,
		'starCount' : 5,
		'latitude' : "39.946299",
		'longitude' : "116.442955",
		'originalHotelID' : "427664",
		'source' : "c"
	},
	{
		'id' : 221,
		'name_en' : "Beijing Plaza Hotel",
		'name_cn' : "北京船舶重工酒店",
		'rating_en' : 4.2,
		'rating_cn' : 4.2,
		'starCount' : 4,
		'latitude' : "39.866956",
		'longitude' : "116.460736",
		'originalHotelID' : "457515",
		'source' : "c"
	},
	{
		'id' : 222,
		'name_en' : "Best Western Grandsky Hotel Beijing",
		'name_cn' : "最佳西方北京碧云天国际酒店",
		'rating_en' : 4.1,
		'rating_cn' : 4.1,
		'starCount' : 4,
		'latitude' : "40.067393",
		'longitude' : "116.559809",
		'originalHotelID' : "473619",
		'source' : "c"
	},
	{
		'id' : 223,
		'name_en' : "Chateau De Luze",
		'name_cn' : "北京和乔丽致酒店",
		'rating_en' : 4.2,
		'rating_cn' : 4.2,
		'starCount' : 4,
		'latitude' : "39.912151",
		'longitude' : "116.471403",
		'originalHotelID' : "374782",
		'source' : "c"
	},
	{
		'id' : 224,
		'name_en' : "Shanshui Fashion Hotel (Beijing Huairou Yanqi)",
		'name_cn' : "山水时尚酒店（北京怀柔雁栖店）",
		'rating_en' : 4.4,
		'rating_cn' : 4.4,
		'starCount' : 4,
		'latitude' : "40.362095",
		'longitude' : "116.675786",
		'originalHotelID' : "859259",
		'source' : "c"
	},
	{
		'id' : 225,
		'name_en' : "Fujian Hotel",
		'name_cn' : "北京福建大厦",
		'rating_en' : 4.4,
		'rating_cn' : 4.4,
		'starCount' : 4,
		'latitude' : "39.969312",
		'longitude' : "116.398314",
		'originalHotelID' : "437721",
		'source' : "c"
	},
	{
		'id' : 226,
		'name_en' : "Beijing Jinyu Fengshan Hotspring Resort",
		'name_cn' : "北京金隅凤山温泉度假村",
		'rating_en' : 4.3,
		'rating_cn' : 4.3,
		'starCount' : 4,
		'latitude' : "40.249566",
		'longitude' : "116.285976",
		'originalHotelID' : "435808",
		'source' : "c"
	},
	{
		'id' : 227,
		'name_en' : "North Latitudes 40",
		'name_cn' : "北京北纬四十度大酒店",
		'rating_en' : 4.3,
		'rating_cn' : 4.3,
		'starCount' : 4,
		'latitude' : "39.962007",
		'longitude' : "116.303267",
		'originalHotelID' : "457186",
		'source' : "c"
	},
	{
		'id' : 228,
		'name_en' : "Golden Phoenix Hotel",
		'name_cn' : "北京丰荣君华酒店",
		'rating_en' : 4.2,
		'rating_cn' : 4.2,
		'starCount' : 4,
		'latitude' : "40.035168",
		'longitude' : "116.620447",
		'originalHotelID' : "429498",
		'source' : "c"
	},
	{
		'id' : 229,
		'name_en' : "Traveler Inn-Hepingli",
		'name_cn' : "北京和平里旅居酒店",
		'rating_en' : 4.3,
		'rating_cn' : 4.3,
		'starCount' : 4,
		'latitude' : "39.9575555",
		'longitude' : "116.4256807",
		'originalHotelID' : "486026",
		'source' : "c"
	},
	{
		'id' : 230,
		'name_en' : "Red Wall Garden Hotel",
		'name_cn' : "北京红墙花园酒店",
		'rating_en' : 4.6,
		'rating_cn' : 4.6,
		'starCount' : 5,
		'latitude' : "39.918902",
		'longitude' : "116.421622",
		'originalHotelID' : "374793",
		'source' : "c"
	},
	{
		'id' : 231,
		'name_en' : "Union Life Jianguo Hotel",
		'name_cn' : "北京合众建国饭店",
		'rating_en' : 4.4,
		'rating_cn' : 4.4,
		'starCount' : 5,
		'latitude' : "39.940248",
		'longitude' : "116.215984",
		'originalHotelID' : "747665",
		'source' : "c"
	},
	{
		'id' : 232,
		'name_en' : "Auspicious Business Hotel",
		'name_cn' : "北京昌平大宅门迎祥商务酒店",
		'rating_en' : 4.3,
		'rating_cn' : 4.3,
		'starCount' : 4,
		'latitude' : "40.22179909",
		'longitude' : "116.2527648",
		'originalHotelID' : "435767",
		'source' : "c"
	},
	{
		'id' : 233,
		'name_en' : "Ordos Hotel",
		'name_cn' : "北京鄂尔多斯艾力酒店",
		'rating_en' : 4.5,
		'rating_cn' : 4.5,
		'starCount' : 4,
		'latitude' : "39.915398",
		'longitude' : "116.428798",
		'originalHotelID' : "456951",
		'source' : "c"
	},
	{
		'id' : 234,
		'name_en' : "Junyi Runhua Hotel ",
		'name_cn' : "北京君颐润华酒店",
		'rating_en' : 4.5,
		'rating_cn' : 4.5,
		'starCount' : 4,
		'latitude' : "39.858241",
		'longitude' : "116.299478",
		'originalHotelID' : "1273120",
		'source' : "c"
	},
	{
		'id' : 235,
		'name_en' : "Apple Hotel",
		'name_cn' : "北京苹果酒店",
		'rating_en' : 4.2,
		'rating_cn' : 4.2,
		'starCount' : 4,
		'latitude' : "39.889123",
		'longitude' : "116.233292",
		'originalHotelID' : "995906",
		'source' : "c"
	},
	{
		'id' : 236,
		'name_en' : "Jingdu Guilong Hotel",
		'name_cn' : "北京景都桂龙大酒店",
		'rating_en' : 4.4,
		'rating_cn' : 4.4,
		'starCount' : 4,
		'latitude' : "39.888154",
		'longitude' : "116.316837",
		'originalHotelID' : "779283",
		'source' : "c"
	},
	{
		'id' : 237,
		'name_en' : "Ramada Beijing North",
		'name_cn' : "北京龙城华美达酒店",
		'rating_en' : 4.4,
		'rating_cn' : 4.4,
		'starCount' : 5,
		'latitude' : "40.084219",
		'longitude' : "116.304313",
		'originalHotelID' : "846998",
		'source' : "c"
	},
	{
		'id' : 238,
		'name_en' : "CFGC GRAND HOTEL",
		'name_cn' : "北京中影大酒店",
		'rating_en' : 4.2,
		'rating_cn' : 4.2,
		'starCount' : 4,
		'latitude' : "40.284847",
		'longitude' : "116.673803",
		'originalHotelID' : "1816233",
		'source' : "c"
	},
	{
		'id' : 239,
		'name_en' : "Somerset Zhongguancun",
		'name_cn' : "北京盛捷中关村服务公寓",
		'rating_en' : 4.5,
		'rating_cn' : 4.5,
		'starCount' : 5,
		'latitude' : "39.9776647718704",
		'longitude' : "116.310890614986",
		'originalHotelID' : "429029",
		'source' : "c"
	},
	{
		'id' : 240,
		'name_en' : "Haoting International Hotel",
		'name_cn' : "北京豪庭国际酒店",
		'rating_en' : 4.3,
		'rating_cn' : 4.3,
		'starCount' : 4,
		'latitude' : "39.9248",
		'longitude' : "116.521079",
		'originalHotelID' : "996518",
		'source' : "c"
	},
	{
		'id' : 241,
		'name_en' : "Xinhai Jinjiang Hotel",
		'name_cn' : "北京鑫海锦江大酒店",
		'rating_en' : 4.5,
		'rating_cn' : 4.5,
		'starCount' : 5,
		'latitude' : "39.915842",
		'longitude' : "116.425644",
		'originalHotelID' : "396407",
		'source' : "c"
	},
	{
		'id' : 242,
		'name_en' : "Loong Palace Hotel & Resort",
		'name_cn' : "北京龙城丽宫国际酒店",
		'rating_en' : 4.5,
		'rating_cn' : 4.5,
		'starCount' : 5,
		'latitude' : "40.087158",
		'longitude' : "116.301323",
		'originalHotelID' : "895549",
		'source' : "c"
	},
	{
		'id' : 243,
		'name_en' : "Hainan Tower",
		'name_cn' : "海南大厦",
		'rating_en' : 4.2,
		'rating_cn' : 4.2,
		'starCount' : 4,
		'latitude' : "39.95438",
		'longitude' : "116.408668",
		'originalHotelID' : "793625",
		'source' : "c"
	},
	{
		'id' : 244,
		'name_en' : "Beijing Jinjiang Fuyuan Hotel ",
		'name_cn' : "北京锦江富园大酒店",
		'rating_en' : 4.4,
		'rating_cn' : 4.4,
		'starCount' : 5,
		'latitude' : "39.799584",
		'longitude' : "116.503433",
		'originalHotelID' : "454991",
		'source' : "c"
	},
	{
		'id' : 245,
		'name_en' : "River View Hotel",
		'name_cn' : "北京雍景台酒店",
		'rating_en' : 4.3,
		'rating_cn' : 4.3,
		'starCount' : 4,
		'latitude' : "39.944176",
		'longitude' : "116.446415",
		'originalHotelID' : "701641",
		'source' : "c"
	},
	{
		'id' : 246,
		'name_en' : "Hotel MoMc",
		'name_cn' : "北京蔓兰酒店",
		'rating_en' : 4.7,
		'rating_cn' : 4.7,
		'starCount' : 5,
		'latitude' : "39.950749",
		'longitude' : "116.438566",
		'originalHotelID' : "535068",
		'source' : "c"
	},
	{
		'id' : 247,
		'name_en' : "Beijing Jingyuan Courtyard Hotel",
		'name_cn' : "北京婧园雅筑四合院宾馆",
		'rating_en' : 4.3,
		'rating_cn' : 4.3,
		'starCount' : 4,
		'latitude' : "39.916315",
		'longitude' : "116.412447",
		'originalHotelID' : "436908",
		'source' : "c"
	},
	{
		'id' : 248,
		'name_en' : "Hutong Boutique Courtyard Hotel (Tian\'anmen)",
		'name_cn' : "龙珠堂精品四合院酒店（北京天安门店）",
		'rating_en' : 4.4,
		'rating_cn' : 4.4,
		'starCount' : 4,
		'latitude' : "39.903547",
		'longitude' : "116.384579",
		'originalHotelID' : "1597521",
		'source' : "c"
	},
	{
		'id' : 249,
		'name_en' : "Songhe Hot Spring Hotel (Training Center)",
		'name_cn' : "北京松鹤建国温泉酒店（培训中心）",
		'rating_en' : 4.3,
		'rating_cn' : 4.3,
		'starCount' : 4,
		'latitude' : "40.084392",
		'longitude' : "116.746087",
		'originalHotelID' : "709531",
		'source' : "c"
	},
	{
		'id' : 250,
		'name_en' : "Amiga Hotel",
		'name_cn' : "北京雅迷家时尚酒店",
		'rating_en' : 4.1,
		'rating_cn' : 4.1,
		'starCount' : 4,
		'latitude' : "40.008371",
		'longitude' : "116.472818",
		'originalHotelID' : "1100917",
		'source' : "c"
	},
	{
		'id' : 251,
		'name_en' : "Xinxiang Yayuan Apartment (Beijing Wangfujing)",
		'name_cn' : "馨香雅苑公寓（北京王府井店）",
		'rating_en' : 4.5,
		'rating_cn' : 4.5,
		'starCount' : 4,
		'latitude' : "39.9241293554035",
		'longitude' : "116.420218795538",
		'originalHotelID' : "455027",
		'source' : "c"
	},
	{
		'id' : 252,
		'name_en' : "Hotel Jen Upper East Beijing (Formerly Traders Upper East Hotel, Beijing)",
		'name_cn' : "北京上东今旅酒店（原北京上东盛贸饭店）",
		'rating_en' : 4.5,
		'rating_cn' : 4.5,
		'starCount' : 4,
		'latitude' : "39.9670644415987",
		'longitude' : "116.477640867233",
		'originalHotelID' : "429487",
		'source' : "c"
	},
	{
		'id' : 253,
		'name_en' : "CCECC Plaza",
		'name_cn' : "北京中土大厦",
		'rating_en' : 4.3,
		'rating_cn' : 4.3,
		'starCount' : 4,
		'latitude' : "39.898017",
		'longitude' : "116.333815",
		'originalHotelID' : "1056324",
		'source' : "c"
	},
	{
		'id' : 254,
		'name_en' : "北京公社1958精品酒店",
		'name_cn' : "北京公社1958精品酒店",
		'rating_en' : 4.6,
		'rating_cn' : 4.6,
		'starCount' : 4,
		'latitude' : "39.922286",
		'longitude' : "116.185988",
		'originalHotelID' : "2707643",
		'source' : "c"
	},
	{
		'id' : 255,
		'name_en' : "BDA Yongkang Business Hotel",
		'name_cn' : "北京博大永康商务酒店",
		'rating_en' : 3.9,
		'rating_cn' : 3.9,
		'starCount' : 4,
		'latitude' : "39.771114",
		'longitude' : "116.539282",
		'originalHotelID' : "789809",
		'source' : "c"
	},
	{
		'id' : 256,
		'name_en' : "Beijing Double Happiness Courtyard Hotel",
		'name_cn' : "北京阅微庄四合院宾馆",
		'rating_en' : 4.6,
		'rating_cn' : 4.6,
		'starCount' : 4,
		'latitude' : "39.927504",
		'longitude' : "116.422301",
		'originalHotelID' : "436905",
		'source' : "c"
	},
	{
		'id' : 257,
		'name_en' : "Ascott Raffles City Beijing",
		'name_cn' : "北京雅诗阁来福士中心服务公寓",
		'rating_en' : 4.7,
		'rating_cn' : 4.7,
		'starCount' : 4,
		'latitude' : "39.9404978141776",
		'longitude' : "116.432319581509",
		'originalHotelID' : "429047",
		'source' : "c"
	},
	{
		'id' : 258,
		'name_en' : "Beijing Sichuan Wuliangye Longzhaoshu Hotel",
		'name_cn' : "北京四川五粮液龙爪树宾馆",
		'rating_en' : 4,
		'rating_cn' : 4,
		'starCount' : 4,
		'latitude' : "39.850065",
		'longitude' : "116.455012",
		'originalHotelID' : "473716",
		'source' : "c"
	},
	{
		'id' : 259,
		'name_en' : "San Glory International Hotel",
		'name_cn' : "北京尚都凯瑞国际酒店",
		'rating_en' : 4.2,
		'rating_cn' : 4.2,
		'starCount' : 4,
		'latitude' : "39.7359",
		'longitude' : "116.340194",
		'originalHotelID' : "1119380",
		'source' : "c"
	},
	{
		'id' : 260,
		'name_en' : "King & Queen Garden Hotel",
		'name_cn' : "北京金宝花园酒店",
		'rating_en' : 4,
		'rating_cn' : 4,
		'starCount' : 5,
		'latitude' : "40.173217",
		'longitude' : "116.660915",
		'originalHotelID' : "513299",
		'source' : "c"
	},
	{
		'id' : 261,
		'name_en' : "Beijing Olympic Park Boutique Hotel",
		'name_cn' : "北京奥北宝迪酒店",
		'rating_en' : 4,
		'rating_cn' : 4,
		'starCount' : 4,
		'latitude' : "40.117029",
		'longitude' : "116.414654",
		'originalHotelID' : "1677110",
		'source' : "c"
	},
	{
		'id' : 262,
		'name_en' : "Jiuxian Apartment",
		'name_cn' : "北京酒仙酒店公寓",
		'rating_en' : 4.4,
		'rating_cn' : 4.4,
		'starCount' : 4,
		'latitude' : "39.985846",
		'longitude' : "116.49072",
		'originalHotelID' : "467199",
		'source' : "c"
	},
	{
		'id' : 263,
		'name_en' : "Soluxe International Convention Center Beijing",
		'name_cn' : "北京阳光国际会议中心",
		'rating_en' : 4.1,
		'rating_cn' : 4.1,
		'starCount' : 5,
		'latitude' : "39.801942",
		'longitude' : "116.798401",
		'originalHotelID' : "662952",
		'source' : "c"
	},
	{
		'id' : 264,
		'name_en' : "Yitel Beijing Beiqijia",
		'name_cn' : "北京北七家未来科技城和颐酒店",
		'rating_en' : 4.3,
		'rating_cn' : 4.3,
		'starCount' : 4,
		'latitude' : "40.118589",
		'longitude' : "116.447037",
		'originalHotelID' : "533335",
		'source' : "c"
	},
	{
		'id' : 265,
		'name_en' : "Shimao Garden Hotel",
		'name_cn' : "北京实茂花园酒店",
		'rating_en' : 4.2,
		'rating_cn' : 4.2,
		'starCount' : 4,
		'latitude' : "39.8244026977459",
		'longitude' : "116.281604915857",
		'originalHotelID' : "2303685",
		'source' : "c"
	},
	{
		'id' : 266,
		'name_en' : "Beijing Hotel",
		'name_cn' : "北京饭店",
		'rating_en' : 4.3,
		'rating_cn' : 4.3,
		'starCount' : 5,
		'latitude' : "39.909062",
		'longitude' : "116.410144",
		'originalHotelID' : "431639",
		'source' : "c"
	},
	{
		'id' : 267,
		'name_en' : "JW Marriott Hotel Beijing",
		'name_cn' : "北京JW万豪酒店",
		'rating_en' : 4.7,
		'rating_cn' : 4.7,
		'starCount' : 4,
		'latitude' : "39.910844",
		'longitude' : "116.481777",
		'originalHotelID' : "391655",
		'source' : "c"
	},
	{
		'id' : 268,
		'name_en' : "Sunrise Kempinski Hotel",
		'name_cn' : "北京日出东方凯宾斯基酒店",
		'rating_en' : 4.5,
		'rating_cn' : 4.5,
		'starCount' : 5,
		'latitude' : "40.387416",
		'longitude' : "116.677122",
		'originalHotelID' : "1739375",
		'source' : "c"
	},
	{
		'id' : 269,
		'name_en' : "Sunworld Dynasty Hotel",
		'name_cn' : "北京天伦王朝酒店",
		'rating_en' : 4.5,
		'rating_cn' : 4.5,
		'starCount' : 5,
		'latitude' : "39.91843",
		'longitude' : "116.41181",
		'originalHotelID' : "419461",
		'source' : "c"
	},
	{
		'id' : 270,
		'name_en' : "Xiyuan Hotel",
		'name_cn' : "北京西苑饭店",
		'rating_en' : 4.3,
		'rating_cn' : 4.3,
		'starCount' : 5,
		'latitude' : "39.937424",
		'longitude' : "116.332004",
		'originalHotelID' : "440888",
		'source' : "c"
	},
	{
		'id' : 271,
		'name_en' : "Comfort Suites",
		'name_cn' : "北京中奥凯富国际酒店",
		'rating_en' : 4.4,
		'rating_cn' : 4.4,
		'starCount' : 4,
		'latitude' : "40.005014",
		'longitude' : "116.406809",
		'originalHotelID' : "429494",
		'source' : "c"
	},
	{
		'id' : 272,
		'name_en' : "Broadtec Royal International Hotel",
		'name_cn' : "北京博泰嘉华国际酒店",
		'rating_en' : 4.2,
		'rating_cn' : 4.2,
		'starCount' : 4,
		'latitude' : "40.013027",
		'longitude' : "116.479545",
		'originalHotelID' : "1257894",
		'source' : "c"
	},
	{
		'id' : 273,
		'name_en' : "Sweetome Apartment (Chang\'anyi)",
		'name_cn' : "北京途家斯维登服务公寓（长安驿店）",
		'rating_en' : 4.3,
		'rating_cn' : 4.3,
		'starCount' : 4,
		'latitude' : "39.906654",
		'longitude' : "116.444891",
		'originalHotelID' : "823662",
		'source' : "c"
	},
	{
		'id' : 274,
		'name_en' : "Shanli Lohas",
		'name_cn' : "北京山里寒舍",
		'rating_en' : 4.3,
		'rating_cn' : 4.3,
		'starCount' : 4,
		'latitude' : "40.476618",
		'longitude' : "117.217132",
		'originalHotelID' : "1709916",
		'source' : "c"
	},
	{
		'id' : 275,
		'name_en' : "Bejing Guangxi Hotel",
		'name_cn' : "广西大厦",
		'rating_en' : 4.3,
		'rating_cn' : 4.3,
		'starCount' : 4,
		'latitude' : "39.87276755",
		'longitude' : "116.4583846",
		'originalHotelID' : "426108",
		'source' : "c"
	},
	{
		'id' : 277,
		'name_en' : "Hotel Kapok",
		'name_cn' : "北京木棉花酒店",
		'rating_en' : 4.5,
		'rating_cn' : 4.5,
		'starCount' : 4,
		'latitude' : "39.91507",
		'longitude' : "116.405565",
		'originalHotelID' : "437909",
		'source' : "c"
	},
	{
		'id' : 278,
		'name_en' : "Poly Plaza Hotel",
		'name_cn' : "北京保利大厦",
		'rating_en' : 4.4,
		'rating_cn' : 4.4,
		'starCount' : 4,
		'latitude' : "39.934422",
		'longitude' : "116.435541",
		'originalHotelID' : "608413",
		'source' : "c"
	},
	{
		'id' : 279,
		'name_en' : "Beijing Xinjiang Plaza",
		'name_cn' : "北京新疆大厦",
		'rating_en' : 4.5,
		'rating_cn' : 4.5,
		'starCount' : 5,
		'latitude' : "39.933124",
		'longitude' : "116.331353",
		'originalHotelID' : "650635",
		'source' : "c"
	},
	{
		'id' : 280,
		'name_en' : "Metropark Lido Hotel, Beijing",
		'name_cn' : "北京丽都维景酒店",
		'rating_en' : 4.4,
		'rating_cn' : 4.4,
		'starCount' : 4,
		'latitude' : "39.977852",
		'longitude' : "116.479213",
		'originalHotelID' : "429503",
		'source' : "c"
	},
	{
		'id' : 281,
		'name_en' : "Beijing Xinyuan Hotel",
		'name_cn' : "北京京都信苑饭店",
		'rating_en' : 4.4,
		'rating_cn' : 4.4,
		'starCount' : 5,
		'latitude' : "39.898089",
		'longitude' : "116.31215",
		'originalHotelID' : "375265",
		'source' : "c"
	},
	{
		'id' : 282,
		'name_en' : "Xingfucheng Hotel",
		'name_cn' : "北京幸福城酒店",
		'rating_en' : 4.5,
		'rating_cn' : 4.5,
		'starCount' : 4,
		'latitude' : "39.941948",
		'longitude' : "116.440691",
		'originalHotelID' : "1073570",
		'source' : "c"
	},
	{
		'id' : 283,
		'name_en' : "Fuyong Yulong Hotel",
		'name_cn' : "北京福永御龙酒店",
		'rating_en' : 4.1,
		'rating_cn' : 4.1,
		'starCount' : 4,
		'latitude' : "40.0861716",
		'longitude' : "116.5497932",
		'originalHotelID' : "845507",
		'source' : "c"
	},
	{
		'id' : 285,
		'name_en' : "Jingyuan Hotel",
		'name_cn' : "北京景苑宾馆",
		'rating_en' : 4.3,
		'rating_cn' : 4.3,
		'starCount' : 4,
		'latitude' : "39.900988",
		'longitude' : "116.362803",
		'originalHotelID' : "457230",
		'source' : "c"
	},
	{
		'id' : 287,
		'name_en' : "Nishi Haitai Hotel (Beijing Sijiqing)",
		'name_cn' : "倪氏海泰大酒店（北京四季青店）",
		'rating_en' : 4.5,
		'rating_cn' : 4.5,
		'starCount' : 4,
		'latitude' : "39.958257",
		'longitude' : "116.277044",
		'originalHotelID' : "998168",
		'source' : "c"
	},
	{
		'id' : 288,
		'name_en' : "Shenzhen Hotel",
		'name_cn' : "北京深圳大厦",
		'rating_en' : 4.4,
		'rating_cn' : 4.4,
		'starCount' : 4,
		'latitude' : "39.890339",
		'longitude' : "116.34722",
		'originalHotelID' : "431641",
		'source' : "c"
	},
	{
		'id' : 289,
		'name_en' : "ZMAX Hotels (Beijing Yizhuang)",
		'name_cn' : "ZMAXHotels潮漫酒店（北京亦庄店）",
		'rating_en' : 4.4,
		'rating_cn' : 4.4,
		'starCount' : 4,
		'latitude' : "39.79455",
		'longitude' : "116.570133",
		'originalHotelID' : "1544007",
		'source' : "c"
	},
	{
		'id' : 290,
		'name_en' : "Conrad Beijing",
		'name_cn' : "北京康莱德酒店",
		'rating_en' : 4.7,
		'rating_cn' : 4.7,
		'starCount' : 4,
		'latitude' : "39.92698335",
		'longitude' : "116.4610004",
		'originalHotelID' : "431874",
		'source' : "c"
	},
	{
		'id' : 291,
		'name_en' : "The Ritz-Carlton Beijing",
		'name_cn' : "北京丽思卡尔顿酒店（华贸中心）",
		'rating_en' : 4.8,
		'rating_cn' : 4.8,
		'starCount' : 6,
		'latitude' : "39.910551",
		'longitude' : "116.480763",
		'originalHotelID' : "393315",
		'source' : "c"
	},
	{
		'id' : 293,
		'name_en' : "China Hall of Science and Technology",
		'name_cn' : "中国科技会堂",
		'rating_en' : 4.4,
		'rating_cn' : 4.4,
		'starCount' : 4,
		'latitude' : "39.908288",
		'longitude' : "116.33292",
		'originalHotelID' : "776751",
		'source' : "c"
	},
	{
		'id' : 294,
		'name_en' : "The Apartments on Financial Street",
		'name_cn' : "北京金融街酒店式公寓",
		'rating_en' : 4.4,
		'rating_cn' : 4.4,
		'starCount' : 5,
		'latitude' : "39.916617",
		'longitude' : "116.364145",
		'originalHotelID' : "445513",
		'source' : "c"
	},
	{
		'id' : 295,
		'name_en' : "The Westin Beijing Financial Street ",
		'name_cn' : "北京金融街威斯汀大酒店",
		'rating_en' : 4.7,
		'rating_cn' : 4.7,
		'starCount' : 5,
		'latitude' : "39.917422",
		'longitude' : "116.359176",
		'originalHotelID' : "387045",
		'source' : "c"
	},
	{
		'id' : 296,
		'name_en' : "Grand Millennium Beijing",
		'name_cn' : "北京千禧大酒店",
		'rating_en' : 4.7,
		'rating_cn' : 4.7,
		'starCount' : 5,
		'latitude' : "39.917323",
		'longitude' : "116.459211",
		'originalHotelID' : "385114",
		'source' : "c"
	},
	{
		'id' : 297,
		'name_en' : "Jianguo Hotel",
		'name_cn' : "北京建国饭店",
		'rating_en' : 4.6,
		'rating_cn' : 4.6,
		'starCount' : 4,
		'latitude' : "39.909191",
		'longitude' : "116.452753",
		'originalHotelID' : "369688",
		'source' : "c"
	},
	{
		'id' : 298,
		'name_en' : "Crowne Plaza Beijing Chaoyang U-Town",
		'name_cn' : "北京朝阳悠唐皇冠假日酒店",
		'rating_en' : 4.7,
		'rating_cn' : 4.7,
		'starCount' : 4,
		'latitude' : "39.92129",
		'longitude' : "116.43847",
		'originalHotelID' : "391657",
		'source' : "c"
	},
	{
		'id' : 299,
		'name_en' : "Renaissance Beijing Capital Hotel",
		'name_cn' : "北京富力万丽酒店",
		'rating_en' : 4.7,
		'rating_cn' : 4.7,
		'starCount' : 4,
		'latitude' : "39.898069",
		'longitude' : "116.460819",
		'originalHotelID' : "374778",
		'source' : "c"
	},
	{
		'id' : 300,
		'name_en' : "Crowne Plaza Beijing International Airport",
		'name_cn' : "北京临空皇冠假日酒店",
		'rating_en' : 4.4,
		'rating_cn' : 4.4,
		'starCount' : 5,
		'latitude' : "40.06550524",
		'longitude' : "116.555439",
		'originalHotelID' : "375079",
		'source' : "c"
	},
	{
		'id' : 301,
		'name_en' : "InterContinental Beijing Financial Street",
		'name_cn' : "北京金融街洲际酒店",
		'rating_en' : 4.7,
		'rating_cn' : 4.7,
		'starCount' : 5,
		'latitude' : "39.91907609",
		'longitude' : "116.3574083",
		'originalHotelID' : "382491",
		'source' : "c"
	},
	{
		'id' : 302,
		'name_en' : "Crowne Plaza Beijing Zhongguancun",
		'name_cn' : "北京中关村皇冠假日酒店",
		'rating_en' : 4.6,
		'rating_cn' : 4.6,
		'starCount' : 5,
		'latitude' : "39.975965",
		'longitude' : "116.322604",
		'originalHotelID' : "430270",
		'source' : "c"
	},
	{
		'id' : 303,
		'name_en' : "Holiday Inn Resort Beijing Yanqing",
		'name_cn' : "北京辉煌假日度假酒店",
		'rating_en' : 4.5,
		'rating_cn' : 4.5,
		'starCount' : 5,
		'latitude' : "40.471829",
		'longitude' : "115.819545",
		'originalHotelID' : "691270",
		'source' : "c"
	},
	{
		'id' : 304,
		'name_en' : "The Presidential Hotel Beijing",
		'name_cn' : "北京国宾酒店",
		'rating_en' : 4.4,
		'rating_cn' : 4.4,
		'starCount' : 5,
		'latitude' : "39.924318",
		'longitude' : "116.350037",
		'originalHotelID' : "431632",
		'source' : "c"
	},
	{
		'id' : 305,
		'name_en' : "Holiday Inn Downtown Beijing",
		'name_cn' : "北京金都假日酒店",
		'rating_en' : 4.4,
		'rating_cn' : 4.4,
		'starCount' : 4,
		'latitude' : "39.925072470816",
		'longitude' : "116.353910565376",
		'originalHotelID' : "430247",
		'source' : "c"
	},
	{
		'id' : 306,
		'name_en' : "Chunhuiyuan Hot Springs Hotel",
		'name_cn' : "北京春晖园温泉度假酒店",
		'rating_en' : 4.5,
		'rating_cn' : 4.5,
		'starCount' : 4,
		'latitude' : "40.129314",
		'longitude' : "116.493175",
		'originalHotelID' : "435777",
		'source' : "c"
	},
	{
		'id' : 307,
		'name_en' : "Fengda International Hotel",
		'name_cn' : "北京丰大国际大酒店",
		'rating_en' : 4.5,
		'rating_cn' : 4.5,
		'starCount' : 5,
		'latitude' : "39.795713",
		'longitude' : "116.508771",
		'originalHotelID' : "996471",
		'source' : "c"
	},
	{
		'id' : 308,
		'name_en' : "Hua Bin International Hotel",
		'name_cn' : "北京华滨国际大酒店",
		'rating_en' : 4.6,
		'rating_cn' : 4.6,
		'starCount' : 4,
		'latitude' : "39.9049052775149",
		'longitude' : "116.37586645782",
		'originalHotelID' : "434938",
		'source' : "c"
	},
	{
		'id' : 309,
		'name_en' : "Novotel Beijing Sanyuan",
		'name_cn' : "北京诺富特三元酒店",
		'rating_en' : 4.3,
		'rating_cn' : 4.3,
		'starCount' : 4,
		'latitude' : "39.96123",
		'longitude' : "116.455486",
		'originalHotelID' : "429032",
		'source' : "c"
	},
	{
		'id' : 310,
		'name_en' : "The Lakeview Hotel",
		'name_cn' : "北京北大博雅国际酒店",
		'rating_en' : 4.5,
		'rating_cn' : 4.5,
		'starCount' : 5,
		'latitude' : "39.997772",
		'longitude' : "116.313388",
		'originalHotelID' : "431636",
		'source' : "c"
	},
	{
		'id' : 311,
		'name_en' : "Holiday Inn Beijing Deshengmen",
		'name_cn' : "北京德胜门华宇假日酒店",
		'rating_en' : 4.5,
		'rating_cn' : 4.5,
		'starCount' : 4,
		'latitude' : "39.957587",
		'longitude' : "116.378635",
		'originalHotelID' : "430223",
		'source' : "c"
	},
	{
		'id' : 312,
		'name_en' : "The Ritz-Carlton Beijing Financial Street",
		'name_cn' : "北京金融街丽思卡尔顿酒店",
		'rating_en' : 4.7,
		'rating_cn' : 4.7,
		'starCount' : 5,
		'latitude' : "39.915373",
		'longitude' : "116.36303",
		'originalHotelID' : "387040",
		'source' : "c"
	},
	{
		'id' : 313,
		'name_en' : "Beijing Yulong International Hotel",
		'name_cn' : "北京裕龙国际酒店",
		'rating_en' : 4.5,
		'rating_cn' : 4.5,
		'starCount' : 5,
		'latitude' : "39.922241",
		'longitude' : "116.298382",
		'originalHotelID' : "837819",
		'source' : "c"
	},
	{
		'id' : 314,
		'name_en' : "Crowne Plaza Beijing Wangfujing",
		'name_cn' : "北京国际艺苑皇冠假日酒店",
		'rating_en' : 4.4,
		'rating_cn' : 4.4,
		'starCount' : 5,
		'latitude' : "39.918994",
		'longitude' : "116.411277",
		'originalHotelID' : "385119",
		'source' : "c"
	},
	{
		'id' : 315,
		'name_en' : "Crowne Plaza Beijing Lido",
		'name_cn' : "北京丽都皇冠假日酒店",
		'rating_en' : 4.7,
		'rating_cn' : 4.7,
		'starCount' : 4,
		'latitude' : "39.978353",
		'longitude' : "116.478984",
		'originalHotelID' : "928851",
		'source' : "c"
	},
	{
		'id' : 316,
		'name_en' : "Beijing Zhongle Six Star Hotel",
		'name_cn' : "北京中乐六星酒店",
		'rating_en' : 4.4,
		'rating_cn' : 4.4,
		'starCount' : 5,
		'latitude' : "39.86156",
		'longitude' : "116.426593",
		'originalHotelID' : "984991",
		'source' : "c"
	},
	{
		'id' : 317,
		'name_en' : "New World Beijing Hotel",
		'name_cn' : "北京新世界酒店",
		'rating_en' : 4.7,
		'rating_cn' : 4.7,
		'starCount' : 4,
		'latitude' : "39.898901",
		'longitude' : "116.412393",
		'originalHotelID' : "634858",
		'source' : "c"
	},
	{
		'id' : 318,
		'name_en' : "New Century Grand Hotel Beijing",
		'name_cn' : "北京开元名都大酒店",
		'rating_en' : 4.6,
		'rating_cn' : 4.6,
		'starCount' : 5,
		'latitude' : "39.887084",
		'longitude' : "116.373553",
		'originalHotelID' : "369695",
		'source' : "c"
	},
	{
		'id' : 319,
		'name_en' : "China Great Hall Hotel",
		'name_cn' : "人民大会堂宾馆",
		'rating_en' : 4.7,
		'rating_cn' : 4.7,
		'starCount' : 5,
		'latitude' : "39.902059",
		'longitude' : "116.394013",
		'originalHotelID' : "2298288",
		'source' : "c"
	},
	{
		'id' : 320,
		'name_en' : "Tangram Hotel",
		'name_cn' : "北京燕翔谭阁美饭店",
		'rating_en' : 4.5,
		'rating_cn' : 4.5,
		'starCount' : 4,
		'latitude' : "39.977506",
		'longitude' : "116.481117",
		'originalHotelID' : "2236110",
		'source' : "c"
	},
	{
		'id' : 321,
		'name_en' : "Park Hyatt Beijing",
		'name_cn' : "北京柏悦酒店",
		'rating_en' : 4.8,
		'rating_cn' : 4.8,
		'starCount' : 6,
		'latitude' : "39.907477",
		'longitude' : "116.459188",
		'originalHotelID' : "419951",
		'source' : "c"
	},
	{
		'id' : 322,
		'name_en' : "Intercontinental Beijing Beichen",
		'name_cn' : "北京北辰洲际酒店",
		'rating_en' : 4.7,
		'rating_cn' : 4.7,
		'starCount' : 5,
		'latitude' : "39.9979091555372",
		'longitude' : "116.388631090522",
		'originalHotelID' : "430210",
		'source' : "c"
	},
	{
		'id' : 323,
		'name_en' : "The Imperial Mansion, Beijing - Marriott Executive Apartments",
		'name_cn' : "北京万豪行政公寓",
		'rating_en' : 4.6,
		'rating_cn' : 4.6,
		'starCount' : 4,
		'latitude' : "39.9101759577945",
		'longitude' : "116.40760843258",
		'originalHotelID' : "429118",
		'source' : "c"
	},
	{
		'id' : 324,
		'name_en' : "Yanqi Hotel, Managed by Kempinski ",
		'name_cn' : "北京雁栖酒店",
		'rating_en' : 4.7,
		'rating_cn' : 4.7,
		'starCount' : 4,
		'latitude' : "40.397336",
		'longitude' : "116.669526",
		'originalHotelID' : "1707138",
		'source' : "c"
	},
	{
		'id' : 325,
		'name_en' : "Holiday Inn Beijing Focus Square",
		'name_cn' : "北京方恒假日酒店",
		'rating_en' : 4.6,
		'rating_cn' : 4.6,
		'starCount' : 4,
		'latitude' : "39.989782",
		'longitude' : "116.481177",
		'originalHotelID' : "430229",
		'source' : "c"
	},
	{
		'id' : 326,
		'name_en' : "Wenjin Hotel",
		'name_cn' : "北京文津国际酒店",
		'rating_en' : 4.4,
		'rating_cn' : 4.4,
		'starCount' : 5,
		'latitude' : "39.993224",
		'longitude' : "116.327741",
		'originalHotelID' : "431634",
		'source' : "c"
	},
	{
		'id' : 327,
		'name_en' : "Days Hotel Beijing New Exhibition Center",
		'name_cn' : "北京明豪戴斯酒店",
		'rating_en' : 4.3,
		'rating_cn' : 4.3,
		'starCount' : 4,
		'latitude' : "40.062832",
		'longitude' : "116.580678",
		'originalHotelID' : "432964",
		'source' : "c"
	},
	{
		'id' : 328,
		'name_en' : "China Palace Hotel",
		'name_cn' : "北京中国职工之家饭店",
		'rating_en' : 4.5,
		'rating_cn' : 4.5,
		'starCount' : 4,
		'latitude' : "39.905667",
		'longitude' : "116.345445",
		'originalHotelID' : "447703",
		'source' : "c"
	},
	{
		'id' : 329,
		'name_en' : "Jinlongtan Hotel",
		'name_cn' : "北京金龙潭大饭店",
		'rating_en' : 4.5,
		'rating_cn' : 4.5,
		'starCount' : 4,
		'latitude' : "39.938778",
		'longitude' : "116.309394",
		'originalHotelID' : "457236",
		'source' : "c"
	},
	{
		'id' : 330,
		'name_en' : "Beijing Capital Xindadu Hotel",
		'name_cn' : "北京新大都饭店",
		'rating_en' : 4.1,
		'rating_cn' : 4.1,
		'starCount' : 4,
		'latitude' : "39.932705",
		'longitude' : "116.335506",
		'originalHotelID' : "793622",
		'source' : "c"
	},
	{
		'id' : 331,
		'name_en' : "Sheraton Beijing Dongcheng Hotel ",
		'name_cn' : "北京金隅喜来登酒店",
		'rating_en' : 4.7,
		'rating_cn' : 4.7,
		'starCount' : 4,
		'latitude' : "39.967163",
		'longitude' : "116.4099",
		'originalHotelID' : "427952",
		'source' : "c"
	},
	{
		'id' : 332,
		'name_en' : "CNCC Grand Hotel",
		'name_cn' : "北京国家会议中心大酒店",
		'rating_en' : 4.6,
		'rating_cn' : 4.6,
		'starCount' : 4,
		'latitude' : "40.001495",
		'longitude' : "116.387786",
		'originalHotelID' : "608421",
		'source' : "c"
	},
	{
		'id' : 333,
		'name_en' : "NUO Hotel Beijing",
		'name_cn' : "北京诺金酒店",
		'rating_en' : 4.6,
		'rating_cn' : 4.6,
		'starCount' : 5,
		'latitude' : "39.976406",
		'longitude' : "116.480877",
		'originalHotelID' : "2215343",
		'source' : "c"
	},
	{
		'id' : 334,
		'name_en' : "Park Plaza Beijing West",
		'name_cn' : "北京紫金丽亭酒店",
		'rating_en' : 4.5,
		'rating_cn' : 4.5,
		'starCount' : 4,
		'latitude' : "39.914645026715",
		'longitude' : "116.283591091633",
		'originalHotelID' : "429076",
		'source' : "c"
	},
	{
		'id' : 335,
		'name_en' : "Beijing Jingtailong Plaza Hotel",
		'name_cn' : "北京京泰龙国际大酒店",
		'rating_en' : 4.4,
		'rating_cn' : 4.4,
		'starCount' : 4,
		'latitude' : "39.892096",
		'longitude' : "116.400114",
		'originalHotelID' : "434201",
		'source' : "c"
	},
	{
		'id' : 336,
		'name_en' : "Zhongyu Century Grand Hotel",
		'name_cn' : "北京中裕世纪大酒店",
		'rating_en' : 4,
		'rating_cn' : 4,
		'starCount' : 4,
		'latitude' : "39.897777",
		'longitude' : "116.323009",
		'originalHotelID' : "481629",
		'source' : "c"
	},
	{
		'id' : 337,
		'name_en' : "Beijing Rui\'an Hotel",
		'name_cn' : "北京瑞安宾馆",
		'rating_en' : 4.6,
		'rating_cn' : 4.6,
		'starCount' : 4,
		'latitude' : "39.9033744432274",
		'longitude' : "116.406540870667",
		'originalHotelID' : "469544",
		'source' : "c"
	},
	{
		'id' : 338,
		'name_en' : "Beijing Railway Hotel",
		'name_cn' : "北京铁道大厦",
		'rating_en' : 4.3,
		'rating_cn' : 4.3,
		'starCount' : 4,
		'latitude' : "39.900419",
		'longitude' : "116.324985",
		'originalHotelID' : "847998",
		'source' : "c"
	},
	{
		'id' : 339,
		'name_en' : "Inner Mongolia Grand Hotel",
		'name_cn' : "北京内蒙古大厦",
		'rating_en' : 4.6,
		'rating_cn' : 4.6,
		'starCount' : 4,
		'latitude' : "39.90551534",
		'longitude' : "116.4185049",
		'originalHotelID' : "419804",
		'source' : "c"
	},
	{
		'id' : 340,
		'name_en' : "West International Trade Hotel",
		'name_cn' : "北京西国贸大酒店",
		'rating_en' : 4.4,
		'rating_cn' : 4.4,
		'starCount' : 5,
		'latitude' : "39.855613",
		'longitude' : "116.3089",
		'originalHotelID' : "445313",
		'source' : "c"
	},
	{
		'id' : 341,
		'name_en' : "Zhongyi Pengao Hotel",
		'name_cn' : "北京中意鹏奥酒店",
		'rating_en' : 4.5,
		'rating_cn' : 4.5,
		'starCount' : 4,
		'latitude' : "39.908324",
		'longitude' : "116.304895",
		'originalHotelID' : "449251",
		'source' : "c"
	},
	{
		'id' : 342,
		'name_en' : "CTS Hong Kong Grand Metro Park Hotel",
		'name_cn' : "北京港中旅维景国际大酒店",
		'rating_en' : 4.4,
		'rating_cn' : 4.4,
		'starCount' : 4,
		'latitude' : "39.88888567",
		'longitude' : "116.3547551",
		'originalHotelID' : "426976",
		'source' : "c"
	},
	{
		'id' : 343,
		'name_en' : "Holiday Inn Central Plaza",
		'name_cn' : "北京中环假日酒店",
		'rating_en' : 4.4,
		'rating_cn' : 4.4,
		'starCount' : 4,
		'latitude' : "39.88234264",
		'longitude' : "116.3533713",
		'originalHotelID' : "426801",
		'source' : "c"
	},
	{
		'id' : 344,
		'name_en' : "CITIC Jingling Hotel",
		'name_cn' : "中信金陵酒店（北京）",
		'rating_en' : 4.6,
		'rating_cn' : 4.6,
		'starCount' : 4,
		'latitude' : "40.310326",
		'longitude' : "117.098475",
		'originalHotelID' : "469193",
		'source' : "c"
	},
	{
		'id' : 345,
		'name_en' : "Days Inn Business Place Longwan",
		'name_cn' : "北京龙湾戴斯商务酒店",
		'rating_en' : 4.3,
		'rating_cn' : 4.3,
		'starCount' : 4,
		'latitude' : "40.086954",
		'longitude' : "116.504428",
		'originalHotelID' : "456460",
		'source' : "c"
	},
	{
		'id' : 346,
		'name_en' : "Shangda International Hotel ",
		'name_cn' : "北京翔达国际商务酒店",
		'rating_en' : 4.4,
		'rating_cn' : 4.4,
		'starCount' : 4,
		'latitude' : "39.889815",
		'longitude' : "116.368371",
		'originalHotelID' : "374800",
		'source' : "c"
	},
	{
		'id' : 347,
		'name_en' : "The Sandalwood, Beijing Marriott Executive Apartments",
		'name_cn' : "北京紫檀万豪行政公寓",
		'rating_en' : 4.6,
		'rating_cn' : 4.6,
		'starCount' : 5,
		'latitude' : "39.9109521500371",
		'longitude' : "116.525443196297",
		'originalHotelID' : "426840",
		'source' : "c"
	},
	{
		'id' : 348,
		'name_en' : "TIANJIAN HOTEI",
		'name_cn' : "北京天健宾馆",
		'rating_en' : 4.6,
		'rating_cn' : 4.6,
		'starCount' : 4,
		'latitude' : "39.919019",
		'longitude' : "116.373904",
		'originalHotelID' : "1013656",
		'source' : "c"
	},
	{
		'id' : 349,
		'name_en' : "Hubei Hotel",
		'name_cn' : "北京湖北大厦",
		'rating_en' : 4.4,
		'rating_cn' : 4.4,
		'starCount' : 4,
		'latitude' : "39.947836",
		'longitude' : "116.325385",
		'originalHotelID' : "445941",
		'source' : "c"
	},
	{
		'id' : 351,
		'name_en' : "Park Plaza Beijing Science Park",
		'name_cn' : "北京丽亭华苑酒店",
		'rating_en' : 4.4,
		'rating_cn' : 4.4,
		'starCount' : 4,
		'latitude' : "39.97747",
		'longitude' : "116.345077",
		'originalHotelID' : "396387",
		'source' : "c"
	},
	{
		'id' : 352,
		'name_en' : "Ariva Beijing West Hotel & Serviced Apartment ",
		'name_cn' : "北京海润艾丽华酒店及服务公寓",
		'rating_en' : 4.5,
		'rating_cn' : 4.5,
		'starCount' : 4,
		'latitude' : "39.9740246266166",
		'longitude' : "116.302535533905",
		'originalHotelID' : "428497",
		'source' : "c"
	},
	{
		'id' : 353,
		'name_en' : "Kuntai Hotel Beijing",
		'name_cn' : "北京昆泰酒店",
		'rating_en' : 4.5,
		'rating_cn' : 4.5,
		'starCount' : 5,
		'latitude' : "40.006548",
		'longitude' : "116.490828",
		'originalHotelID' : "482816",
		'source' : "c"
	},
	{
		'id' : 354,
		'name_en' : "Ausotel Dayu Beijing",
		'name_cn' : "北京大雨澳斯特酒店",
		'rating_en' : 4.3,
		'rating_cn' : 4.3,
		'starCount' : 4,
		'latitude' : "39.97955",
		'longitude' : "116.476409",
		'originalHotelID' : "778525",
		'source' : "c"
	},
	{
		'id' : 355,
		'name_en' : "Chang An Grand Hotel",
		'name_cn' : "长安大饭店（陕西大厦）",
		'rating_en' : 4.3,
		'rating_cn' : 4.3,
		'starCount' : 5,
		'latitude' : "39.87257693",
		'longitude' : "116.4583168",
		'originalHotelID' : "427292",
		'source' : "c"
	},
	{
		'id' : 356,
		'name_en' : "Beijing Jinnian Hotel",
		'name_cn' : "北京山西（金辇）大厦",
		'rating_en' : 4.6,
		'rating_cn' : 4.5,
		'starCount' : 4,
		'latitude' : "39.857653",
		'longitude' : "116.382469",
		'originalHotelID' : "468777",
		'source' : "c"
	},
	{
		'id' : 357,
		'name_en' : "Comfort Inn & Suites Beijing",
		'name_cn' : "北京凯富酒店",
		'rating_en' : 4.3,
		'rating_cn' : 4.3,
		'starCount' : 4,
		'latitude' : "39.93342622",
		'longitude' : "116.4581852",
		'originalHotelID' : "429541",
		'source' : "c"
	},
	{
		'id' : 358,
		'name_en' : "A.C.Embassy Hotel",
		'name_cn' : "北京奥加美术馆酒店",
		'rating_en' : 4.4,
		'rating_cn' : 4.4,
		'starCount' : 4,
		'latitude' : "39.940651",
		'longitude' : "116.448085",
		'originalHotelID' : "608385",
		'source' : "c"
	},
	{
		'id' : 359,
		'name_en' : "Mingyoun Central Hotel",
		'name_cn' : "北京明宇丽雅饭店",
		'rating_en' : 4.5,
		'rating_cn' : 4.5,
		'starCount' : 4,
		'latitude' : "39.910288",
		'longitude' : "116.423948",
		'originalHotelID' : "823110",
		'source' : "c"
	},
	{
		'id' : 360,
		'name_en' : "Grand Dynasty Hotel",
		'name_cn' : "北京新大宗饭店",
		'rating_en' : 4.2,
		'rating_cn' : 4.2,
		'starCount' : 4,
		'latitude' : "39.946007",
		'longitude' : "116.467958",
		'originalHotelID' : "431612",
		'source' : "c"
	},
	{
		'id' : 362,
		'name_en' : "Beijing Jinyu Badaling Spa Resort",
		'name_cn' : "北京金隅八达岭温泉度假村",
		'rating_en' : 4.1,
		'rating_cn' : 4.1,
		'starCount' : 4,
		'latitude' : "40.476033",
		'longitude' : "115.973028",
		'originalHotelID' : "482742",
		'source' : "c"
	},
	{
		'id' : 363,
		'name_en' : "Chateau Changyu AFIP Global Beijing",
		'name_cn' : "北京张裕爱斐堡国际酒庄（欧洲小镇度假酒店）",
		'rating_en' : 4.3,
		'rating_cn' : 4.3,
		'starCount' : 5,
		'latitude' : "40.378292",
		'longitude' : "116.899842",
		'originalHotelID' : "700209",
		'source' : "c"
	},
	{
		'id' : 364,
		'name_en' : "Pentahotel Beijing",
		'name_cn' : "北京贝尔特酒店",
		'rating_en' : 4.5,
		'rating_cn' : 4.5,
		'starCount' : 4,
		'latitude' : "39.8975635458685",
		'longitude' : "116.417387723923",
		'originalHotelID' : "429531",
		'source' : "c"
	},
	{
		'id' : 365,
		'name_en' : "Guohong Hotel",
		'name_cn' : "北京国宏宾馆",
		'rating_en' : 4.4,
		'rating_cn' : 4.4,
		'starCount' : 4,
		'latitude' : "39.905804",
		'longitude' : "116.336239",
		'originalHotelID' : "457228",
		'source' : "c"
	},
	{
		'id' : 366,
		'name_en' : "Beijing Marriott Hotel Northeast",
		'name_cn' : "北京海航大厦万豪酒店",
		'rating_en' : 4.6,
		'rating_cn' : 4.6,
		'starCount' : 5,
		'latitude' : "39.9598609522607",
		'longitude' : "116.467362642288",
		'originalHotelID' : "427006",
		'source' : "c"
	},
	{
		'id' : 367,
		'name_en' : "Olympic Village Garden Hotel",
		'name_cn' : "北京国奥村花园酒店",
		'rating_en' : 4.5,
		'rating_cn' : 4.5,
		'starCount' : 5,
		'latitude' : "40.0095370468945",
		'longitude' : "116.380705833435",
		'originalHotelID' : "712326",
		'source' : "c"
	},
	{
		'id' : 368,
		'name_en' : "The Sanlitun Inn",
		'name_cn' : "檀驿栈精品酒店（北京工体三里屯店）",
		'rating_en' : 4.1,
		'rating_cn' : 4.1,
		'starCount' : 4,
		'latitude' : "39.935046",
		'longitude' : "116.445712",
		'originalHotelID' : "533848",
		'source' : "c"
	},
	{
		'id' : 369,
		'name_en' : "Gubei Water Town Wuzhenhui Boutique Hotel",
		'name_cn' : "北京古北水镇乌镇会精品酒店",
		'rating_en' : 4.8,
		'rating_cn' : 4.8,
		'starCount' : 5,
		'latitude' : "40.650895",
		'longitude' : "117.267352",
		'originalHotelID' : "1048667",
		'source' : "c"
	},
	{
		'id' : 370,
		'name_en' : "Zhejiang Tower",
		'name_cn' : "浙江大厦",
		'rating_en' : 4.3,
		'rating_cn' : 4.3,
		'starCount' : 4,
		'latitude' : "39.969396",
		'longitude' : "116.400278",
		'originalHotelID' : "1431292",
		'source' : "c"
	},
	{
		'id' : 371,
		'name_en' : "Jiu Hua Spa & Resort",
		'name_cn' : "北京九华山庄",
		'rating_en' : 4,
		'rating_cn' : 4,
		'starCount' : 5,
		'latitude' : "40.17924",
		'longitude' : "116.4175603",
		'originalHotelID' : "428559",
		'source' : "c"
	},
	{
		'id' : 372,
		'name_en' : "Red Wall Hotel",
		'name_cn' : "北京红墙酒店",
		'rating_en' : 4.1,
		'rating_cn' : 4.1,
		'starCount' : 4,
		'latitude' : "39.924761",
		'longitude' : "116.403374",
		'originalHotelID' : "473741",
		'source' : "c"
	},
	{
		'id' : 373,
		'name_en' : "Beijing Dragon Spring Hotel",
		'name_cn' : "北京龙泉宾馆",
		'rating_en' : 4.2,
		'rating_cn' : 4.2,
		'starCount' : 4,
		'latitude' : "39.9630269628583",
		'longitude' : "116.104180812836",
		'originalHotelID' : "436056",
		'source' : "c"
	},
	{
		'id' : 374,
		'name_en' : "Courtyard by Marriott Beijing Northeast",
		'name_cn' : "北京人济万怡酒店",
		'rating_en' : 4.5,
		'rating_cn' : 4.5,
		'starCount' : 4,
		'latitude' : "39.979095",
		'longitude' : "116.475659",
		'originalHotelID' : "427015",
		'source' : "c"
	},
	{
		'id' : 375,
		'name_en' : "康福瑞假日酒店（北京西山店）",
		'name_cn' : "康福瑞假日酒店（北京西山店）",
		'rating_en' : 4.6,
		'rating_cn' : 4.6,
		'starCount' : 5,
		'latitude' : "40.06799",
		'longitude' : "116.257796",
		'originalHotelID' : "1306403",
		'source' : "c"
	},
	{
		'id' : 376,
		'name_en' : "China Intellectual Property Training Center",
		'name_cn' : "中国知识产权培训中心",
		'rating_en' : 4,
		'rating_cn' : 4,
		'starCount' : 4,
		'latitude' : "40.044815",
		'longitude' : "116.306194",
		'originalHotelID' : "2174749",
		'source' : "c"
	},
	{
		'id' : 377,
		'name_en' : "Swan Lakeview Hotel",
		'name_cn' : "北京中建雁栖湖景酒店",
		'rating_en' : 4.4,
		'rating_cn' : 4.4,
		'starCount' : 5,
		'latitude' : "40.403791",
		'longitude' : "116.681457",
		'originalHotelID' : "1210428",
		'source' : "c"
	},
	{
		'id' : 378,
		'name_en' : "Zhonggong Plaza",
		'name_cn' : "北京中工大厦",
		'rating_en' : 3.6,
		'rating_cn' : 3.6,
		'starCount' : 4,
		'latitude' : "39.92957",
		'longitude' : "116.319347",
		'originalHotelID' : "1386272",
		'source' : "c"
	},
	{
		'id' : 379,
		'name_en' : "Super House International ",
		'name_cn' : "强强北京国际商务酒店",
		'rating_en' : 4.3,
		'rating_cn' : 4.3,
		'starCount' : 4,
		'latitude' : "39.866277",
		'longitude' : "116.460302",
		'originalHotelID' : "436287",
		'source' : "c"
	},
	{
		'id' : 380,
		'name_en' : "National Jade Hotel",
		'name_cn' : "北京国玉大酒店",
		'rating_en' : 4,
		'rating_cn' : 4,
		'starCount' : 4,
		'latitude' : "39.995267",
		'longitude' : "116.402388",
		'originalHotelID' : "793711",
		'source' : "c"
	},
	{
		'id' : 381,
		'name_en' : "Beijing Longxi Hotspring Resort",
		'name_cn' : "北京龙熙温泉度假酒店",
		'rating_en' : 4.2,
		'rating_cn' : 4.2,
		'starCount' : 5,
		'latitude' : "39.6237",
		'longitude' : "116.303474",
		'originalHotelID' : "431663",
		'source' : "c"
	},
	{
		'id' : 382,
		'name_en' : "Gubei Water Town Wangjinglou Boutique Hotel",
		'name_cn' : "北京古北水镇望京楼精品酒店",
		'rating_en' : 4.7,
		'rating_cn' : 4.7,
		'starCount' : 5,
		'latitude' : "40.646783",
		'longitude' : "117.261372",
		'originalHotelID' : "1048962",
		'source' : "c"
	},
	{
		'id' : 384,
		'name_en' : "Beijing Jingyi Hotel",
		'name_cn' : "北京京仪大酒店",
		'rating_en' : 4.5,
		'rating_cn' : 4.5,
		'starCount' : 4,
		'latitude' : "39.972099",
		'longitude' : "116.337544",
		'originalHotelID' : "457181",
		'source' : "c"
	},
	{
		'id' : 385,
		'name_en' : "Sheke Boyuan Hotel",
		'name_cn' : "北京社科博源宾馆",
		'rating_en' : 4.2,
		'rating_cn' : 4.2,
		'starCount' : 4,
		'latitude' : "39.922709",
		'longitude' : "116.410527",
		'originalHotelID' : "374798",
		'source' : "c"
	},
	{
		'id' : 386,
		'name_en' : "Beijing Xihua Business Hotel",
		'name_cn' : "北京锡华商务酒店",
		'rating_en' : 4.2,
		'rating_cn' : 4.2,
		'starCount' : 4,
		'latitude' : "39.989317",
		'longitude' : "116.302658",
		'originalHotelID' : "1194548",
		'source' : "c"
	},
	{
		'id' : 387,
		'name_en' : "Tangshan Hotel",
		'name_cn' : "唐山大厦",
		'rating_en' : 3.7,
		'rating_cn' : 3.7,
		'starCount' : 4,
		'latitude' : "39.911556",
		'longitude' : "116.488161",
		'originalHotelID' : "1860745",
		'source' : "c"
	},
	{
		'id' : 388,
		'name_en' : "Beijing Jintai Hotel",
		'name_cn' : "北京金台饭店",
		'rating_en' : 4.3,
		'rating_cn' : 4.3,
		'starCount' : 4,
		'latitude' : "39.932326",
		'longitude' : "116.379166",
		'originalHotelID' : "1011017",
		'source' : "c"
	},
	{
		'id' : 389,
		'name_en' : "Radegast Hotel Beijing Hongshan",
		'name_cn' : "北京红山瑞廷酒店",
		'rating_en' : 4.5,
		'rating_cn' : 4.5,
		'starCount' : 4,
		'latitude' : "40.017814",
		'longitude' : "116.266046",
		'originalHotelID' : "452251",
		'source' : "c"
	},
	{
		'id' : 390,
		'name_en' : "Yuanhang International Hotel",
		'name_cn' : "北京空港远航国际酒店",
		'rating_en' : 4.2,
		'rating_cn' : 4.2,
		'starCount' : 4,
		'latitude' : "40.062507",
		'longitude' : "116.585886",
		'originalHotelID' : "456444",
		'source' : "c"
	},
	{
		'id' : 392,
		'name_en' : "Holiday Inn Beijing Haidian",
		'name_cn' : "北京红杉假日酒店",
		'rating_en' : 4.5,
		'rating_cn' : 4.5,
		'starCount' : 4,
		'latitude' : "40.003332",
		'longitude' : "116.338892",
		'originalHotelID' : "430242",
		'source' : "c"
	},
	{
		'id' : 393,
		'name_en' : "Beijing Jizhong Taurus Hotel",
		'name_cn' : "北京冀中金牛酒店",
		'rating_en' : 4.6,
		'rating_cn' : 4.6,
		'starCount' : 4,
		'latitude' : "39.96392",
		'longitude' : "116.308718",
		'originalHotelID' : "2277604",
		'source' : "c"
	},
	{
		'id' : 394,
		'name_en' : "Free Comfort Holiday Hotel (Beijing South Xueyuan Road)",
		'name_cn' : "康福瑞假日酒店(北京学院南路店)",
		'rating_en' : 4.4,
		'rating_cn' : 4.4,
		'starCount' : 4,
		'latitude' : "39.959037",
		'longitude' : "116.346703",
		'originalHotelID' : "432794",
		'source' : "c"
	},
	{
		'id' : 395,
		'name_en' : "Hongluoyuan Hotel",
		'name_cn' : "北京红螺园饭店",
		'rating_en' : 4.3,
		'rating_cn' : 4.3,
		'starCount' : 4,
		'latitude' : "40.3655506991652",
		'longitude' : "116.629315763712",
		'originalHotelID' : "1386771",
		'source' : "c"
	},
	{
		'id' : 396,
		'name_en' : "Renji Jianguo Hotel",
		'name_cn' : "北京人济建国酒店",
		'rating_en' : 4.5,
		'rating_cn' : 4.5,
		'starCount' : 5,
		'latitude' : "40.348174",
		'longitude' : "116.557914",
		'originalHotelID' : "1073582",
		'source' : "c"
	},
	{
		'id' : 397,
		'name_en' : "Maya Island Hotel",
		'name_cn' : "北京玛雅岛酒店",
		'rating_en' : 4.1,
		'rating_cn' : 4.1,
		'starCount' : 4,
		'latitude' : "39.825802",
		'longitude' : "116.284145",
		'originalHotelID' : "469749",
		'source' : "c"
	},
	{
		'id' : 398,
		'name_en' : "Avic Hotel",
		'name_cn' : "北京艾维克酒店",
		'rating_en' : 4.6,
		'rating_cn' : 4.6,
		'starCount' : 4,
		'latitude' : "39.905144",
		'longitude' : "116.463039",
		'originalHotelID' : "700199",
		'source' : "c"
	},
	{
		'id' : 400,
		'name_en' : "Beijing Commercial Business Hotel",
		'name_cn' : "北京商务会馆",
		'rating_en' : 4.3,
		'rating_cn' : 4.3,
		'starCount' : 4,
		'latitude' : "39.867614",
		'longitude' : "116.359054",
		'originalHotelID' : "825971",
		'source' : "c"
	},
	{
		'id' : 401,
		'name_en' : "Xinxin Town Hostel",
		'name_cn' : "北京新新小镇会所",
		'rating_en' : 4.4,
		'rating_cn' : 4.4,
		'starCount' : 4,
		'latitude' : "40.285592",
		'longitude' : "116.638263",
		'originalHotelID' : "511772",
		'source' : "c"
	},
	{
		'id' : 402,
		'name_en' : "北京威爾曼主題酒店",
		'name_cn' : "北京威尔曼主题酒店",
		'rating_en' : 4.6,
		'rating_cn' : 4.6,
		'starCount' : 5,
		'latitude' : "39.733175",
		'longitude' : "116.331933",
		'originalHotelID' : "2998237",
		'source' : "c"
	},
	{
		'id' : 403,
		'name_en' : "Changying Hotel",
		'name_cn' : "北京长缨酒店",
		'rating_en' : 4.3,
		'rating_cn' : 4.3,
		'starCount' : 4,
		'latitude' : "39.894294",
		'longitude' : "116.476955",
		'originalHotelID' : "1048231",
		'source' : "c"
	},
	{
		'id' : 404,
		'name_en' : "RESTINHOTEL",
		'name_cn' : "北京瑞斯汀酒店",
		'rating_en' : 4.3,
		'rating_cn' : 4.3,
		'starCount' : 4,
		'latitude' : "39.74549",
		'longitude' : "116.33798",
		'originalHotelID' : "2305189",
		'source' : "c"
	},
	{
		'id' : 405,
		'name_en' : "Tibet Hotel",
		'name_cn' : "西藏大厦",
		'rating_en' : 4.3,
		'rating_cn' : 4.3,
		'starCount' : 4,
		'latitude' : "39.987859",
		'longitude' : "116.413892",
		'originalHotelID' : "479851",
		'source' : "c"
	},
	{
		'id' : 406,
		'name_en' : "Beijing Henan Plaza Hotel",
		'name_cn' : "河南大厦",
		'rating_en' : 4.3,
		'rating_cn' : 4.3,
		'starCount' : 4,
		'latitude' : "39.873207",
		'longitude' : "116.457851",
		'originalHotelID' : "701612",
		'source' : "c"
	},
	{
		'id' : 407,
		'name_en' : "Zpark Plaza",
		'name_cn' : "北京中关村软件园国际会议服务中心",
		'rating_en' : 4.4,
		'rating_cn' : 4.4,
		'starCount' : 4,
		'latitude' : "40.048745",
		'longitude' : "116.296624",
		'originalHotelID' : "1965006",
		'source' : "c"
	},
	{
		'id' : 408,
		'name_en' : "Nangong Spring Season Hotel Beijing",
		'name_cn' : "北京南宫温泉度假酒店",
		'rating_en' : 4.2,
		'rating_cn' : 4.2,
		'starCount' : 5,
		'latitude' : "39.804839",
		'longitude' : "116.154093",
		'originalHotelID' : "436059",
		'source' : "c"
	},
	{
		'id' : 409,
		'name_en' : "Beijing Huangyuan Hotel",
		'name_cn' : "北京皇苑大酒店",
		'rating_en' : 4,
		'rating_cn' : 4,
		'starCount' : 4,
		'latitude' : "39.957542",
		'longitude' : "116.304182",
		'originalHotelID' : "1513416",
		'source' : "c"
	},
	{
		'id' : 410,
		'name_en' : "Fraternal Cooperation International Hotel",
		'name_cn' : "北京共济国际酒店",
		'rating_en' : 4,
		'rating_cn' : 4,
		'starCount' : 4,
		'latitude' : "39.971068",
		'longitude' : "116.454889",
		'originalHotelID' : "929011",
		'source' : "c"
	},
	{
		'id' : 411,
		'name_en' : "Eaself Hotel ",
		'name_cn' : "北京自安然酒店",
		'rating_en' : 4.7,
		'rating_cn' : 4.7,
		'starCount' : 5,
		'latitude' : "40.068375",
		'longitude' : "116.415424",
		'originalHotelID' : "1917950",
		'source' : "c"
	},
	{
		'id' : 412,
		'name_en' : "Diaoyutai Hotel",
		'name_cn' : "北京钓鱼台大酒店",
		'rating_en' : 4.6,
		'rating_cn' : 4.6,
		'starCount' : 5,
		'latitude' : "39.913684",
		'longitude' : "116.333666",
		'originalHotelID' : "918302",
		'source' : "c"
	},
	{
		'id' : 413,
		'name_en' : "High-Tech Mansion BUPT",
		'name_cn' : "北京北邮科技酒店·北邮科技大厦",
		'rating_en' : 4.4,
		'rating_cn' : 4.4,
		'starCount' : 4,
		'latitude' : "39.964731",
		'longitude' : "116.355255",
		'originalHotelID' : "1073743",
		'source' : "c"
	},
	{
		'id' : 414,
		'name_en' : "New Happy Inn International Hotel Beijing ",
		'name_cn' : "北京悦宏国际酒店",
		'rating_en' : 4.5,
		'rating_cn' : 4.5,
		'starCount' : 4,
		'latitude' : "39.909846",
		'longitude' : "116.285055",
		'originalHotelID' : "1618369",
		'source' : "c"
	},
	{
		'id' : 415,
		'name_en' : "Jiafu Binshe Hotel",
		'name_cn' : "北京嘉福宾舍酒店",
		'rating_en' : 4.5,
		'rating_cn' : 4.5,
		'starCount' : 4,
		'latitude' : "39.904028",
		'longitude' : "116.03082",
		'originalHotelID' : "1115880",
		'source' : "c"
	},
	{
		'id' : 416,
		'name_en' : "Spring Legend Holiday Hotel",
		'name_cn' : "北京顶秀美泉假日酒店",
		'rating_en' : 4.4,
		'rating_cn' : 4.4,
		'starCount' : 4,
		'latitude' : "40.367743",
		'longitude' : "116.672916",
		'originalHotelID' : "662543",
		'source' : "c"
	},
	{
		'id' : 417,
		'name_en' : "Cau International Conference Centre",
		'name_cn' : "北京金码大酒店",
		'rating_en' : 4.4,
		'rating_cn' : 4.4,
		'starCount' : 4,
		'latitude' : "40.00181",
		'longitude' : "116.353662",
		'originalHotelID' : "638075",
		'source' : "c"
	},
	{
		'id' : 418,
		'name_en' : "古北水鎮威廉埃德加精品酒店",
		'name_cn' : "古北水镇威廉埃德加精品酒店",
		'rating_en' : 4.6,
		'rating_cn' : 4.6,
		'starCount' : 5,
		'latitude' : "40.645482",
		'longitude' : "117.260956",
		'originalHotelID' : "2586261",
		'source' : "c"
	},
	{
		'id' : 419,
		'name_en' : "Dahongmen International Convention & Exhibition Center",
		'name_cn' : "北京大红门国际会展中心",
		'rating_en' : 4.2,
		'rating_cn' : 4.2,
		'starCount' : 4,
		'latitude' : "39.846787",
		'longitude' : "116.401865",
		'originalHotelID' : "473649",
		'source' : "c"
	},
	{
		'id' : 420,
		'name_en' : "Beijing Jiangxi Grand Hotel",
		'name_cn' : "北京江西大酒店",
		'rating_en' : 4.3,
		'rating_cn' : 4.3,
		'starCount' : 4,
		'latitude' : "39.855846",
		'longitude' : "116.434061",
		'originalHotelID' : "431870",
		'source' : "c"
	},
	{
		'id' : 421,
		'name_en' : "Beijing Wanshou Hotel",
		'name_cn' : "北京万寿宾馆",
		'rating_en' : 4.3,
		'rating_cn' : 4.3,
		'starCount' : 4,
		'latitude' : "39.912452",
		'longitude' : "116.293808",
		'originalHotelID' : "482929",
		'source' : "c"
	},
	{
		'id' : 422,
		'name_en' : "Landmark Service Apartments",
		'name_cn' : "北京亮马河酒店式公寓",
		'rating_en' : 4.2,
		'rating_cn' : 4.2,
		'starCount' : 4,
		'latitude' : "39.946036",
		'longitude' : "116.463446",
		'originalHotelID' : "608534",
		'source' : "c"
	},
	{
		'id' : 423,
		'name_en' : "Beijing Taishan Hotel",
		'name_cn' : "北京泰山饭店",
		'rating_en' : 4.4,
		'rating_cn' : 4.4,
		'starCount' : 5,
		'latitude' : "40.04979",
		'longitude' : "116.329504",
		'originalHotelID' : "451101",
		'source' : "c"
	},
	{
		'id' : 424,
		'name_en' : "Yun Teng Hotel",
		'name_cn' : "北京云腾宾馆",
		'rating_en' : 4.4,
		'rating_cn' : 4.4,
		'starCount' : 4,
		'latitude' : "39.899757",
		'longitude' : "116.436222",
		'originalHotelID' : "2252191",
		'source' : "c"
	},
	{
		'id' : 425,
		'name_en' : "Beijing International Bamboo and Rattan Tower",
		'name_cn' : "北京国际竹藤大厦",
		'rating_en' : 4.1,
		'rating_cn' : 4.1,
		'starCount' : 4,
		'latitude' : "39.988982",
		'longitude' : "116.479921",
		'originalHotelID' : "501888",
		'source' : "c"
	},
	{
		'id' : 426,
		'name_en' : "Kingrand Hotel Beijing",
		'name_cn' : "北京金霖酒店",
		'rating_en' : 4.6,
		'rating_cn' : 4.6,
		'starCount' : 4,
		'latitude' : "39.8902580714426",
		'longitude' : "116.40138566494",
		'originalHotelID' : "426748",
		'source' : "c"
	},
	{
		'id' : 427,
		'name_en' : "Beijing Fuxing Road No. 26 VIP Building",
		'name_cn' : "北京复兴路二十六号贵宾楼(原北京复兴路招待所)",
		'rating_en' : 4.3,
		'rating_cn' : 4.3,
		'starCount' : 4,
		'latitude' : "39.906996",
		'longitude' : "116.279088",
		'originalHotelID' : "1595004",
		'source' : "c"
	},
	{
		'id' : 428,
		'name_en' : "Water Town Hotel",
		'name_cn' : "古北水镇大酒店",
		'rating_en' : 4.7,
		'rating_cn' : 4.7,
		'starCount' : 5,
		'latitude' : "40.650895",
		'longitude' : "117.267352",
		'originalHotelID' : "1047921",
		'source' : "c"
	},
	{
		'id' : 429,
		'name_en' : "Commune by the Great Wall",
		'name_cn' : "延庆长城脚下的公社",
		'rating_en' : 4.3,
		'rating_cn' : 4.3,
		'starCount' : 5,
		'latitude' : "40.3403278548169",
		'longitude' : "116.055376678705",
		'originalHotelID' : "457536",
		'source' : "c"
	},
	{
		'id' : 430,
		'name_en' : "Xiang Shan Yitel Hotel",
		'name_cn' : "北京香山颐和宾馆",
		'rating_en' : 4.6,
		'rating_cn' : 4.6,
		'starCount' : 5,
		'latitude' : "40.005478",
		'longitude' : "116.266079",
		'originalHotelID' : "993808",
		'source' : "c"
	},